{"features": [{"geometry": {"coordinates": [-56.696296, 49.121209], "type": "Point"}, "properties": {"category": "lifestyle", "int_sc": "72", "local_sc": "16", "location": "Newfoundland", "nat_sc": "51", "prov_sc": "9", "title": "I Don\u2019t Know If My Kids Will Ever See Their Grandparents Again", "topic": "famili just time peopl year home life day", "url": "https://www.cbc.ca/parents/learning/view/covid-19-grandparents-and-the-future"}, "type": "Feature"}, {"geometry": {"coordinates": [-79.383935, 43.653482], "type": "Point"}, "properties": {"category": "lifestyle", "int_sc": "29", "local_sc": "86", "location": "Toronto", "nat_sc": "78", "prov_sc": "97", "title": "Why your workout may not be helping you lose weight", "topic": "famili just time peopl year home life day", "url": "https://www.thestar.com/life/health_wellness/2020/01/06/why-your-workout-may-not-be-helping-you-lose-weight.html"}, "type": "Feature"}, {"geometry": {"coordinates": [6.73991, 45.57], "type": "Point"}, "properties": {"category": "lifestyle", "int_sc": "2", "local_sc": "47", "location": "Landry", "nat_sc": "28", "prov_sc": "4", "title": "She lost 100 pounds and became an Instagram sensation. Then she realized how diet culture was affecting her kids", "topic": "famili just time peopl year home life day", "url": "https://www.thestar.com/life/health_wellness/2020/01/09/she-lost-100-pounds-and-became-an-instagram-sensation-then-she-realized-how-diet-culture-was-affecting-her-kids.html"}, "type": "Feature"}, {"geometry": {"coordinates": [-79.540139, 43.779361], "type": "Point"}, "properties": {"category": "lifestyle", "int_sc": "38", "local_sc": "21", "location": "Toronto", "nat_sc": "33", "prov_sc": "58", "title": "How do I stop my adult children from being so lazy and entitled? Ask Ellie", "topic": "famili just time peopl year home life day", "url": "https://www.thestar.com/life/relationships/advice/2020/07/14/how-do-i-stop-my-adult-children-from-being-so-lazy-and-entitled-ask-ellie.html"}, "type": "Feature"}, {"geometry": {"coordinates": [-96.405878, 42.496682], "type": "Point"}, "properties": {"category": "lifestyle", "int_sc": "61", "local_sc": "23", "location": "Sioux City", "nat_sc": "66", "prov_sc": "63", "title": "'Magic School Bus' author Joanna Cole dies at age 75", "topic": "famili just time peopl year home life day", "url": "https://www.ctvnews.ca/entertainment/magic-school-bus-author-joanna-cole-dies-at-age-75-1.5026416"}, "type": "Feature"}, {"geometry": {"coordinates": [-79.540139, 43.779361], "type": "Point"}, "properties": {"category": "lifestyle", "int_sc": "94", "local_sc": "32", "location": "Toronto", "nat_sc": "10", "prov_sc": "40", "title": "My sweet \u2018easy\u2019 friend will have sex with any guy \u2014 even ones she doesn\u2019t like. Ask Ellie", "topic": "famili just time peopl year home life day", "url": "https://www.thestar.com/life/relationships/advice/2020/07/15/my-sweet-easy-friend-will-have-sex-with-any-guy-even-ones-she-doesnt-like-ask-ellie.html"}, "type": "Feature"}, {"geometry": {"coordinates": [-79.540139, 43.779361], "type": "Point"}, "properties": {"category": "lifestyle", "int_sc": "25", "local_sc": "96", "location": "Toronto", "nat_sc": "19", "prov_sc": "59", "title": "My widowed mom wants to set up house with her new lover. Ask Ellie", "topic": "famili just time peopl year home life day", "url": "https://www.thestar.com/life/relationships/advice/2020/07/16/my-widowed-mom-wants-to-set-up-house-with-her-new-lover-ask-ellie.html"}, "type": "Feature"}, {"geometry": {"coordinates": [-79.383935, 43.653482], "type": "Point"}, "properties": {"category": "lifestyle", "int_sc": "42", "local_sc": "59", "location": "Toronto", "nat_sc": "70", "prov_sc": "57", "title": "Toronto art stores get crafty with kits for kids", "topic": "famili just time peopl year home life day", "url": "https://www.thestar.com/life/2020/04/08/toronto-art-stores-get-crafty-with-kits-for-kids.html"}, "type": "Feature"}, {"geometry": {"coordinates": [-86.000977, 50.000678], "type": "Point"}, "properties": {"category": "lifestyle", "int_sc": "67", "local_sc": "40", "location": "Ontario", "nat_sc": "14", "prov_sc": "12", "title": "Why #visiblemending is trending", "topic": "famili just time peopl year home life day", "url": "https://www.thestar.com/life/2020/04/09/why-visiblemending-is-trending.html"}, "type": "Feature"}, {"geometry": {"coordinates": [-79.383935, 43.653482], "type": "Point"}, "properties": {"category": "lifestyle", "int_sc": "18", "local_sc": "40", "location": "Toronto", "nat_sc": "53", "prov_sc": "6", "title": "Craft your way out of pandemic stress: Try knitting, origami or dried flower arranging", "topic": "famili just time peopl year home life day", "url": "https://www.thestar.com/life/2020/05/14/craft-your-way-out-of-pandemic-stress-try-knitting-origami-or-dried-flower-arranging.html"}, "type": "Feature"}, {"geometry": {"coordinates": [-79.383935, 43.653482], "type": "Point"}, "properties": {"category": "lifestyle", "int_sc": "76", "local_sc": "91", "location": "Toronto", "nat_sc": "16", "prov_sc": "90", "title": "Aren\u2019t there property standards for land bordering Highway 401?", "topic": "famili just time peopl year home life day", "url": "https://www.thestar.com/autos/opinion/2020/07/17/arent-there-property-standards-for-land-bordering-highway-401.html"}, "type": "Feature"}, {"geometry": {"coordinates": [85.607096, 22.401705], "type": "Point"}, "properties": {"category": "lifestyle", "int_sc": "3", "local_sc": "11", "location": "Tonto", "nat_sc": "1", "prov_sc": "13", "title": "Margaret Atwood on post-Covid hopes. Plus baking", "topic": "famili just time peopl year home life day", "url": "https://www.thestar.com/entertainment/books/opinion/2020/07/17/margaret-atwood-on-post-covid-hopes-plus-baking.html"}, "type": "Feature"}, {"geometry": {"coordinates": [-79.540139, 43.779361], "type": "Point"}, "properties": {"category": "lifestyle", "int_sc": "15", "local_sc": "62", "location": "Toronto", "nat_sc": "18", "prov_sc": "56", "title": "Trebek says he\u2019s \u2018doing well,\u2019 looks forward to taping \u2018Jeopardy!\u2019 new episodes", "topic": "famili just time peopl year home life day", "url": "https://www.thestar.com/entertainment/television/2020/07/17/trebek-says-hes-doing-well-looks-forward-to-taping-jeopardy-new-episodes.html"}, "type": "Feature"}, {"geometry": {"coordinates": [-79.540139, 43.779361], "type": "Point"}, "properties": {"category": "lifestyle", "int_sc": "69", "local_sc": "59", "location": "Toronto", "nat_sc": "62", "prov_sc": "42", "title": "Horoscope for Friday, July 17, 2020", "topic": "famili just time peopl year home life day", "url": "https://www.thestar.com/life/horoscope/2020/07/17/horoscope-for-friday-july-17-2020.html"}, "type": "Feature"}, {"geometry": {"coordinates": [-79.540139, 43.779361], "type": "Point"}, "properties": {"category": "lifestyle", "int_sc": "88", "local_sc": "52", "location": "Toronto", "nat_sc": "99", "prov_sc": "58", "title": "He didn\u2019t seem to know he was on a date", "topic": "famili just time peopl year home life day", "url": "https://www.thestar.com/life/relationships/advice/2020/07/17/he-didnt-seem-to-know-he-was-on-a-date.html"}, "type": "Feature"}, {"geometry": {"coordinates": [-79.383935, 43.653482], "type": "Point"}, "properties": {"category": "lifestyle", "int_sc": "27", "local_sc": "69", "location": "Toronto", "nat_sc": "87", "prov_sc": "20", "title": "Ask the Kit: How do I find the best bathing suit?", "topic": "famili just time peopl year home life day", "url": "https://www.thestar.com/life/fashion_style/2020/07/17/ask-the-kit-how-do-i-find-the-best-bathing-suit.html"}, "type": "Feature"}, {"geometry": {"coordinates": [-66.750183, 46.500283], "type": "Point"}, "properties": {"category": "lifestyle", "int_sc": "87", "local_sc": "70", "location": "New Brunswick", "nat_sc": "5", "prov_sc": "32", "title": "UPDATE: Man who murdered Kitchener woman dies in prison", "topic": "famili just time peopl year home life day", "url": "https://www.therecord.com/news/waterloo-region/2020/07/14/man-who-murdered-kitchener-woman-dies-in-prison.html"}, "type": "Feature"}, {"geometry": {"coordinates": [-79.383935, 43.653482], "type": "Point"}, "properties": {"category": "lifestyle", "int_sc": "9", "local_sc": "41", "location": "Toronto", "nat_sc": "13", "prov_sc": "11", "title": "The birth of a bill, the death of an activist", "topic": "famili just time peopl year home life day", "url": "https://www.thestar.com/opinion/contributors/2020/07/16/the-birth-of-a-bill-the-death-of-an-activist.html"}, "type": "Feature"}, {"geometry": {"coordinates": [-79.383935, 43.653482], "type": "Point"}, "properties": {"category": "lifestyle", "int_sc": "23", "local_sc": "81", "location": "Toronto", "nat_sc": "31", "prov_sc": "57", "title": "Star readers write public editor with their wish lists", "topic": "famili just time peopl year home life day", "url": "https://www.thestar.com/opinion/public_editor/2020/07/17/star-readers-write-public-editor-with-their-wish-lists.html"}, "type": "Feature"}, {"geometry": {"coordinates": [-113.831578, 69.208321], "type": "Point"}, "properties": {"category": "lifestyle", "int_sc": "74", "local_sc": "42", "location": "Read Island", "nat_sc": "15", "prov_sc": "16", "title": "This tiny B.C community wanted to buy a forest to save it from loggers. The world chipped in", "topic": "famili just time peopl year home life day", "url": "https://www.thestar.com/news/canada/2020/07/12/they-wanted-to-buy-a-forest-to-save-it-from-loggers-the-world-chipped-in.html"}, "type": "Feature"}, {"geometry": {"coordinates": [-119.666667, 49.6], "type": "Point"}, "properties": {"category": "lifestyle", "int_sc": "10", "local_sc": "95", "location": "Summerland", "nat_sc": "59", "prov_sc": "37", "title": "\u2018Your parents can call me anytime\u2019: After racist vandals target home, town rallies to help Indo-Canadian family", "topic": "famili just time peopl year home life day", "url": "https://www.thestar.com/news/canada/2020/07/14/your-parents-can-call-me-anytime-after-racist-vandals-target-home-town-rallies-to-help-indo-canadian-family.html"}, "type": "Feature"}, {"geometry": {"coordinates": [-79.377972, 43.671944], "type": "Point"}, "properties": {"category": "lifestyle", "int_sc": "0", "local_sc": "7", "location": "Toronto", "nat_sc": "29", "prov_sc": "96", "title": "ASK AMY: Girlfriend wants to swing \u2013 alone", "topic": "famili just time peopl year home life day", "url": "https://torontosun.com/life/relationships/ask-amy-girlfriend-wants-to-swing-alone"}, "type": "Feature"}, {"geometry": {"coordinates": [127.043827, 37.543609], "type": "Point"}, "properties": {"category": "lifestyle", "int_sc": "5", "local_sc": "72", "location": "Understand", "nat_sc": "35", "prov_sc": "76", "title": "ASK AMY: Inheritance leads to a Dickens of a problem", "topic": "famili just time peopl year home life day", "url": "https://torontosun.com/life/relationships/ask-amy-inheritance-leads-to-a-dickens-of-a-problem"}, "type": "Feature"}, {"geometry": {"coordinates": [-79.377972, 43.671944], "type": "Point"}, "properties": {"category": "lifestyle", "int_sc": "92", "local_sc": "5", "location": "Toronto", "nat_sc": "25", "prov_sc": "23", "title": "ASK AMY: Elder wonders why parents socialize with kids in tow", "topic": "famili just time peopl year home life day", "url": "https://torontosun.com/life/relationships/ask-amy-elder-wonders-why-parents-socialize-with-kids-in-tow"}, "type": "Feature"}, {"geometry": {"coordinates": [7.386978, 53.089894], "type": "Point"}, "properties": {"category": "lifestyle", "int_sc": "90", "local_sc": "21", "location": "Papenburg", "nat_sc": "61", "prov_sc": "20", "title": "Comet NEOWISE delights local stargazers", "topic": "famili just time peopl year home life day", "url": "https://www.therecord.com/news/waterloo-region/2020/07/13/comet-neowise-delights-local-stargazers.html"}, "type": "Feature"}, {"geometry": {"coordinates": [-79.383935, 43.653482], "type": "Point"}, "properties": {"category": "lifestyle", "int_sc": "38", "local_sc": "11", "location": "Toronto", "nat_sc": "6", "prov_sc": "37", "title": "Forget dieting. Lasting weight loss requires a lifestyle change", "topic": "famili just time peopl year home life day", "url": "https://www.thestar.com/life/health_wellness/2020/01/07/forget-dieting-lasting-weight-loss-requires-a-lifestyle-change.html"}, "type": "Feature"}, {"geometry": {"coordinates": [-79.383935, 43.653482], "type": "Point"}, "properties": {"category": "lifestyle", "int_sc": "70", "local_sc": "18", "location": "Toronto", "nat_sc": "51", "prov_sc": "67", "title": "Keto, vegan, fasting: How to cherry-pick the best parts of the super-diets", "topic": "famili just time peopl year home life day", "url": "https://www.thestar.com/life/health_wellness/2020/01/11/keto-vegan-fasting-how-to-cherry-pick-the-best-parts-of-the-super-diets.html"}, "type": "Feature"}, {"geometry": {"coordinates": [24.059196, 56.968989], "type": "Point"}, "properties": {"category": "lifestyle", "int_sc": "10", "local_sc": "95", "location": "kebabs", "nat_sc": "31", "prov_sc": "99", "title": "Do online groups push extreme diets too far?", "topic": "famili just time peopl year home life day", "url": "https://www.thestar.com/life/health_wellness/2020/01/10/do-online-groups-push-extreme-diets-too-far.html"}, "type": "Feature"}, {"geometry": {"coordinates": [-125.002441, 55.001251], "type": "Point"}, "properties": {"category": "lifestyle", "int_sc": "78", "local_sc": "70", "location": "British Columbia", "nat_sc": "82", "prov_sc": "86", "title": "Can you follow the Mediterranean diet in Toronto?", "topic": "famili just time peopl year home life day", "url": "https://www.thestar.com/life/health_wellness/2020/01/08/can-you-follow-the-mediterranean-diet-in-toronto.html"}, "type": "Feature"}, {"geometry": {"coordinates": [-122.849144, 49.191303], "type": "Point"}, "properties": {"category": "lifestyle", "int_sc": "63", "local_sc": "4", "location": "Surrey, British Columbia", "nat_sc": "59", "prov_sc": "93", "title": "Robert James \u201cRob the Barber\u201d Giesbrecht \u2013 Surrey Now-Leader", "topic": "famili just time peopl year home life day", "url": "https://www.surreynowleader.com/obituaries/robert-james-rob-the-barber-giesbrecht/"}, "type": "Feature"}, {"geometry": {"coordinates": [6.325826, 48.360465], "type": "Point"}, "properties": {"category": "lifestyle", "int_sc": "0", "local_sc": "12", "location": "Langley City", "nat_sc": "13", "prov_sc": "74", "title": "Marie Anna Mow (nee van Spronsen) \u2013 Surrey Now-Leader", "topic": "famili just time peopl year home life day", "url": "https://www.surreynowleader.com/obituaries/marie-anna-mow-nee-van-spronsen/"}, "type": "Feature"}, {"geometry": {"coordinates": [-5.486507, 43.198242], "type": "Point"}, "properties": {"category": "lifestyle", "int_sc": "83", "local_sc": "30", "location": "Priya", "nat_sc": "7", "prov_sc": "23", "title": "This 19-year-old nursing student makes $1,000 a month working part-time at a cafe and is worried about mounting student debt. How can she prepare for the future?", "topic": "famili just time peopl year home life day", "url": "https://www.thestar.com/business/personal_finance/2020/07/13/this-19-year-old-nursing-student-makes-1000-a-month-working-part-time-at-a-cafe-and-is-worried-about-mounting-student-debt-how-can-she-prepare-for-the-future.html"}, "type": "Feature"}, {"geometry": {"coordinates": [-79.383935, 43.653482], "type": "Point"}, "properties": {"category": "lifestyle", "int_sc": "2", "local_sc": "58", "location": "Toronto", "nat_sc": "34", "prov_sc": "43", "title": "This 26-year-old couple loves Toronto, but now they have a baby and want a house. On a single income of $70,000, is it time to leave the city?", "topic": "famili just time peopl year home life day", "url": "https://www.thestar.com/business/2020/01/13/this-26-year-old-couple-was-loving-toronto-but-now-they-have-a-baby-and-they-want-a-house-is-it-time-to-leave-the-city.html"}, "type": "Feature"}, {"geometry": {"coordinates": [-79.540139, 43.779361], "type": "Point"}, "properties": {"category": "lifestyle", "int_sc": "0", "local_sc": "61", "location": "Toronto", "nat_sc": "31", "prov_sc": "83", "title": "How to deal with being homesick", "topic": "famili just time peopl year home life day", "url": "https://www.thestar.com/life/post_secondary_education/2020/03/how-to-deal-with-being-homesick.html"}, "type": "Feature"}, {"geometry": {"coordinates": [-79.540139, 43.779361], "type": "Point"}, "properties": {"category": "lifestyle", "int_sc": "24", "local_sc": "75", "location": "Toronto", "nat_sc": "79", "prov_sc": "70", "title": "Take advantage of on-campus resources", "topic": "famili just time peopl year home life day", "url": "https://www.thestar.com/life/post_secondary_education/2020/03/take-advantage-of-on-campus-resources0.html"}, "type": "Feature"}, {"geometry": {"coordinates": [-79.540139, 43.779361], "type": "Point"}, "properties": {"category": "lifestyle", "int_sc": "71", "local_sc": "30", "location": "Toronto", "nat_sc": "65", "prov_sc": "19", "title": "How to improve your study habits", "topic": "famili just time peopl year home life day", "url": "https://www.thestar.com/life/post_secondary_education/2020/03/how-to-improve-your-study-habits.html"}, "type": "Feature"}, {"geometry": {"coordinates": [-79.540139, 43.779361], "type": "Point"}, "properties": {"category": "lifestyle", "int_sc": "0", "local_sc": "23", "location": "Toronto", "nat_sc": "86", "prov_sc": "71", "title": "The power of connection", "topic": "famili just time peopl year home life day", "url": "https://www.thestar.com/sponsored_sections/saluting-the-frontlines/2020/04/24/the-power-of-connection.html"}, "type": "Feature"}, {"geometry": {"coordinates": [-57.744366, -31.996097], "type": "Point"}, "properties": {"category": "lifestyle", "int_sc": "20", "local_sc": "10", "location": "Araujo", "nat_sc": "1", "prov_sc": "1", "title": "Send in the clowns", "topic": "famili just time peopl year home life day", "url": "https://www.thestar.com/sponsored_sections/saluting-the-frontlines/2020/04/24/send-in-the-clowns.html"}, "type": "Feature"}, {"geometry": {"coordinates": [-79.784431, 44.078953], "type": "Point"}, "properties": {"category": "lifestyle", "int_sc": "44", "local_sc": "51", "location": "Beeton", "nat_sc": "4", "prov_sc": "93", "title": "As pandemic baking surges, local mills are finding creative ways to meet the demand", "topic": "famili just time peopl year home life day", "url": "https://www.thestar.com/sponsored_sections/on-the-food-frontlines/05/16/as-pandemic-baking-surges--local-mills-are-finding-creative-ways.html"}, "type": "Feature"}, {"geometry": {"coordinates": [-107.991707, 61.066692], "type": "Point"}, "properties": {"category": "lifestyle", "int_sc": "38", "local_sc": "0", "location": "Canada", "nat_sc": "16", "prov_sc": "16", "title": "A family restaurant responds to the current crisis by feeding its neighbours for free", "topic": "famili just time peopl year home life day", "url": "https://www.thestar.com/sponsored_sections/on-the-food-frontlines/05/16/a-family-restaurant-responds-to-the-current-crisis-by-feeding-it.html"}, "type": "Feature"}, {"geometry": {"coordinates": [-87.624421, 41.875562], "type": "Point"}, "properties": {"category": "lifestyle", "int_sc": "8", "local_sc": "98", "location": "Chicago", "nat_sc": "55", "prov_sc": "88", "title": "Debutantes denied: Cotillion group turns 60, but coming out has to wait until 2021 thanks to COVID-19", "topic": "famili just time peopl year home life day", "url": "https://www.thestar.com/life/2020/07/10/debutantes-denied-cotillion-group-turns-60-but-coming-out-has-to-wait-until-2021-thanks-to-covid-19.html"}, "type": "Feature"}, {"geometry": {"coordinates": [-84.682435, 43.621195], "type": "Point"}, "properties": {"category": "lifestyle", "int_sc": "92", "local_sc": "86", "location": "Michigan", "nat_sc": "40", "prov_sc": "81", "title": "$1M treasure hunt triggered by Michigan jeweller", "topic": "famili just time peopl year home life day", "url": "https://torontosun.com/news/world/1m-treasure-hunt-triggered-by-michigan-jeweller"}, "type": "Feature"}, {"geometry": {"coordinates": [-114.015407, 43.644764], "type": "Point"}, "properties": {"category": "lifestyle", "int_sc": "53", "local_sc": "21", "location": "Idaho", "nat_sc": "16", "prov_sc": "77", "title": "\u2018Ocean to Idaho\u2019 follows migration of salmon from Pacific to central Idaho through immersive social media campaign", "topic": "famili just time peopl year home life day", "url": "https://www.thestar.com/life/relationships/2020/07/10/ocean-to-idaho-follows-migration-of-salmon-from-pacific-to-central-idaho-through-immersive-social-media-campaign.html"}, "type": "Feature"}, {"geometry": {"coordinates": [-79.383935, 43.653482], "type": "Point"}, "properties": {"category": "lifestyle", "int_sc": "26", "local_sc": "11", "location": "Toronto", "nat_sc": "17", "prov_sc": "11", "title": "Here\u2019s how three new gardeners are growing their own groceries", "topic": "famili just time peopl year home life day", "url": "https://www.thestar.com/life/homes/2020/07/15/heres-how-three-new-gardeners-are-growing-their-own-groceries.html"}, "type": "Feature"}, {"geometry": {"coordinates": [-75.697472, 45.421861], "type": "Point"}, "properties": {"category": "lifestyle", "int_sc": "45", "local_sc": "65", "location": "Ottawa", "nat_sc": "77", "prov_sc": "98", "title": "Cast of 'The Office' gives shout-out to University of Guelph grads", "topic": "famili just time peopl year home life day", "url": "https://kitchener.ctvnews.ca/cast-of-the-office-gives-shout-out-to-university-of-guelph-grads-1.5028722"}, "type": "Feature"}, {"geometry": {"coordinates": [-79.540139, 43.779361], "type": "Point"}, "properties": {"category": "lifestyle", "int_sc": "92", "local_sc": "52", "location": "Toronto", "nat_sc": "25", "prov_sc": "31", "title": "Meredith Shaw is bringing body positivity to food television", "topic": "famili just time peopl year home life day", "url": "https://www.thestar.com/life/health_wellness/2020/07/13/meredith-shaw-is-bringing-body-positivity-to-food-television.html"}, "type": "Feature"}, {"geometry": {"coordinates": [-79.383935, 43.653482], "type": "Point"}, "properties": {"category": "lifestyle", "int_sc": "60", "local_sc": "40", "location": "Toronto", "nat_sc": "62", "prov_sc": "7", "title": "I did yoga in a plastic pod during a heat wave", "topic": "famili just time peopl year home life day", "url": "https://www.thestar.com/life/health_wellness/2020/07/13/i-did-yoga-in-a-plastic-pod-during-a-heat-wave.html"}, "type": "Feature"}, {"geometry": {"coordinates": [-79.38087, 43.654015], "type": "Point"}, "properties": {"category": "lifestyle", "int_sc": "66", "local_sc": "5", "location": "Babaton", "nat_sc": "63", "prov_sc": "15", "title": "Six dresses to wear in a heat wave", "topic": "famili just time peopl year home life day", "url": "https://www.thestar.com/life/fashion_style/2020/07/09/six-dresses-to-wear-in-a-heatwave.html"}, "type": "Feature"}, {"geometry": {"coordinates": [30.518887, 50.446355], "type": "Point"}, "properties": {"category": "lifestyle", "int_sc": "88", "local_sc": "45", "location": "kitsch", "nat_sc": "18", "prov_sc": "16", "title": "Were Digital Dior and Chanel any good?", "topic": "famili just time peopl year home life day", "url": "https://www.thestar.com/life/fashion_style/2020/07/10/were-digital-dior-and-chanel-any-good.html"}, "type": "Feature"}, {"geometry": {"coordinates": [-88.732158, 45.189584], "type": "Point"}, "properties": {"category": "lifestyle", "int_sc": "36", "local_sc": "94", "location": "U.S.", "nat_sc": "89", "prov_sc": "68", "title": "\u2018If I wanted a nude bra, I had to paint one\u2019", "topic": "famili just time peopl year home life day", "url": "https://www.thestar.com/life/fashion_style/2020/07/14/if-i-wanted-a-nude-bra-i-had-to-paint-one.html"}, "type": "Feature"}, {"geometry": {"coordinates": [-3.188375, 55.953346], "type": "Point"}, "properties": {"category": "lifestyle", "int_sc": "8", "local_sc": "13", "location": "Edinburgh", "nat_sc": "50", "prov_sc": "83", "title": "Princess Beatrice marries in private ceremony at Windsor", "topic": "famili just time peopl year home life day", "url": "https://www.ctvnews.ca/world/princess-beatrice-marries-in-private-ceremony-at-windsor-1.5028141"}, "type": "Feature"}, {"geometry": {"coordinates": [-86.000977, 50.000678], "type": "Point"}, "properties": {"category": "lifestyle", "int_sc": "5", "local_sc": "44", "location": "Ontario", "nat_sc": "93", "prov_sc": "55", "title": "The Gin Fizz, with an Ontario twist (and a bonus bartender pro tip)", "topic": "famili just time peopl year home life day", "url": "https://www.thestar.com/life/food_wine/2020/07/03/the-gin-fizz-with-an-ontario-twist-and-a-bonus-bartender-pro-tip.html"}, "type": "Feature"}, {"geometry": {"coordinates": [-86.000977, 50.000678], "type": "Point"}, "properties": {"category": "lifestyle", "int_sc": "99", "local_sc": "30", "location": "Ontario", "nat_sc": "86", "prov_sc": "84", "title": "Some tricks for a proper Manhattan (Hint: don\u2019t forget the bitters)", "topic": "famili just time peopl year home life day", "url": "https://www.thestar.com/life/food_wine/advice/2020/07/11/some-tricks-for-a-proper-manhattan-hint-dont-forget-the-bitters.html"}, "type": "Feature"}, {"geometry": {"coordinates": [-7.889626, 40.033263], "type": "Point"}, "properties": {"category": "lifestyle", "int_sc": "38", "local_sc": "70", "location": "Portugal", "nat_sc": "91", "prov_sc": "60", "title": "Yes, you can drink wine on the rocks (plus one to chill you might not expect)", "topic": "famili just time peopl year home life day", "url": "https://www.thestar.com/life/food_wine/advice/2020/07/09/yes-you-can-drink-wine-on-the-rocks-plus-one-to-chill-you-might-not-expect.html"}, "type": "Feature"}, {"geometry": {"coordinates": [-71.31877, -31.761336], "type": "Point"}, "properties": {"category": "lifestyle", "int_sc": "72", "local_sc": "46", "location": "Chile", "nat_sc": "98", "prov_sc": "68", "title": "Seven delicious wines under $15 at the LCBO", "topic": "famili just time peopl year home life day", "url": "https://www.thestar.com/life/food_wine/advice/2020/07/16/seven-delicious-wines-under-15-at-the-lcbo.html"}, "type": "Feature"}, {"geometry": {"coordinates": [11.231294, 59.166031], "type": "Point"}, "properties": {"category": "lifestyle", "int_sc": "55", "local_sc": "78", "location": "Slang", "nat_sc": "44", "prov_sc": "81", "title": "A short history of the word \u2018Simp\u2019", "topic": "famili just time peopl year home life day", "url": "https://www.thestar.com/life/relationships/2020/07/13/a-short-history-of-the-word-simp.html"}, "type": "Feature"}, {"geometry": {"coordinates": [-64.91968, 47.479971], "type": "Point"}, "properties": {"category": "lifestyle", "int_sc": "19", "local_sc": "95", "location": "Sheila", "nat_sc": "7", "prov_sc": "44", "title": "Lifetimes: Childhood memories lasted more than a century", "topic": "famili just time peopl year home life day", "url": "https://www.therecord.com/news/waterloo-region/2020/07/13/lifetimes-childhood-memories-lasted-more-than-a-century.html"}, "type": "Feature"}, {"geometry": {"coordinates": [-79.383935, 43.653482], "type": "Point"}, "properties": {"category": "lifestyle", "int_sc": "40", "local_sc": "5", "location": "Toronto", "nat_sc": "29", "prov_sc": "93", "title": "A $250,000 INSTANT MONOPOLY prize allowed this winner to make a decision from the heart", "topic": "famili just time peopl year home life day", "url": "https://torontosun.com/sponsored/sponsored-life/a-250000-instant-monopoly-prize-allowed-this-winner-to-make-a-decision-from-the-heart"}, "type": "Feature"}, {"geometry": {"coordinates": [-106.141224, 55.532126], "type": "Point"}, "properties": {"category": "lifestyle", "int_sc": "71", "local_sc": "86", "location": "Saskatchewan", "nat_sc": "22", "prov_sc": "44", "title": "Stuck on how to spend your stay-cation? Here's some Regina activities to break the boredom", "topic": "famili just time peopl year home life day", "url": "http://regina.ctvnews.ca/stuck-on-how-to-spend-your-stay-cation-here-s-some-regina-activities-to-break-the-boredom-1.5023769"}, "type": "Feature"}, {"geometry": {"coordinates": [-104.985775, 50.791189], "type": "Point"}, "properties": {"category": "lifestyle", "int_sc": "41", "local_sc": "71", "location": "Regina Beach", "nat_sc": "38", "prov_sc": "51", "title": "Saskatchewan centenarian tees off on 100th birthday", "topic": "famili just time peopl year home life day", "url": "http://regina.ctvnews.ca/saskatchewan-centenarian-tees-off-on-100th-birthday-1.5027701"}, "type": "Feature"}, {"geometry": {"coordinates": [-125.002441, 55.001251], "type": "Point"}, "properties": {"category": "lifestyle", "int_sc": "26", "local_sc": "47", "location": "British Columbia", "nat_sc": "59", "prov_sc": "22", "title": "Tropical barracuda caught off Vancouver Island", "topic": "famili just time peopl year home life day", "url": "https://vancouverisland.ctvnews.ca/tropical-barracuda-caught-off-vancouver-island-1.5024105"}, "type": "Feature"}, {"geometry": {"coordinates": [141.386622, 43.011653], "type": "Point"}, "properties": {"category": "lifestyle", "int_sc": "53", "local_sc": "2", "location": "Bigg", "nat_sc": "30", "prov_sc": "44", "title": "'The whale is doing well': Scientists say B.C.'s rare white orca is thriving", "topic": "famili just time peopl year home life day", "url": "https://vancouverisland.ctvnews.ca/the-whale-is-doing-well-scientists-say-b-c-s-rare-white-orca-is-thriving-1.5024352"}, "type": "Feature"}, {"geometry": {"coordinates": [39.294167, 40.841554], "type": "Point"}, "properties": {"category": "lifestyle", "int_sc": "73", "local_sc": "50", "location": "Tonya", "nat_sc": "79", "prov_sc": "73", "title": "Cowichan Valley widow opens up about husband's disappearance, suicide", "topic": "famili just time peopl year home life day", "url": "https://vancouverisland.ctvnews.ca/cowichan-valley-widow-opens-up-about-husband-s-disappearance-suicide-1.5025167"}, "type": "Feature"}, {"geometry": {"coordinates": [-75.697472, 45.421861], "type": "Point"}, "properties": {"category": "lifestyle", "int_sc": "77", "local_sc": "16", "location": "Ottawa", "nat_sc": "97", "prov_sc": "16", "title": "Victoria man with dementia unexpectedly creates 113 pieces of positive art", "topic": "famili just time peopl year home life day", "url": "https://vancouverisland.ctvnews.ca/victoria-man-with-dementia-unexpectedly-creates-113-pieces-of-positive-art-1.5027680"}, "type": "Feature"}, {"geometry": {"coordinates": [-1.208691, 42.591192], "type": "Point"}, "properties": {"category": "lifestyle", "int_sc": "80", "local_sc": "30", "location": "Javier", "nat_sc": "17", "prov_sc": "73", "title": "In The Margins: \u2018American Dirt\u2019 an adrenalin-fueled page-turner", "topic": "famili just time peopl year home life day", "url": "https://www.therecord.com/entertainment/books/review/2020/06/05/in-the-margins-american-dirt-an-adrenalin-fueled-page-turner.html"}, "type": "Feature"}, {"geometry": {"coordinates": [-75.697472, 45.421861], "type": "Point"}, "properties": {"category": "lifestyle", "int_sc": "37", "local_sc": "93", "location": "Ottawa", "nat_sc": "97", "prov_sc": "41", "title": "$775M Greater Victoria sewage treatment plant nears completion", "topic": "famili just time peopl year home life day", "url": "https://vancouverisland.ctvnews.ca/775m-greater-victoria-sewage-treatment-plant-nears-completion-1.5027568"}, "type": "Feature"}, {"geometry": {"coordinates": [-89.688464, 44.430898], "type": "Point"}, "properties": {"category": "lifestyle", "int_sc": "8", "local_sc": "39", "location": "Wisconsin", "nat_sc": "22", "prov_sc": "84", "title": "A family rescued a bear after it was found swimming with a plastic tub on its head", "topic": "famili just time peopl year home life day", "url": "https://www.ctvnews.ca/lifestyle/a-family-rescued-a-bear-after-it-was-found-swimming-with-a-plastic-tub-on-its-head-1.5005669"}, "type": "Feature"}, {"geometry": {"coordinates": [3.941671, 50.46749], "type": "Point"}, "properties": {"category": "lifestyle", "int_sc": "16", "local_sc": "68", "location": "Hemerocallis", "nat_sc": "96", "prov_sc": "62", "title": "These six flowers are blooming right now. And they make a lot of scents", "topic": "famili just time peopl year home life day", "url": "https://www.therecord.com/ts/life/homes/2020/07/14/these-six-flowers-are-blooming-right-now-and-they-make-a-lot-of-scents.html"}, "type": "Feature"}, {"geometry": {"coordinates": [31.275509, 29.962087], "type": "Point"}, "properties": {"category": "lifestyle", "int_sc": "86", "local_sc": "4", "location": "Dishes", "nat_sc": "99", "prov_sc": "11", "title": "Dining In: This Kitchen has Kornered the breakfast market in Waterloo", "topic": "famili just time peopl year home life day", "url": "https://www.therecord.com/life/food-wine/review/2020/06/25/dining-in-this-kitchen-has-kornered-the-breakfast-market-in-waterloo.html"}, "type": "Feature"}, {"geometry": {"coordinates": [-5.00538, 40.811366], "type": "Point"}, "properties": {"category": "lifestyle", "int_sc": "39", "local_sc": "62", "location": "Vita", "nat_sc": "66", "prov_sc": "83", "title": "'We're in it to win it': Manitoba twins battling cancer, diagnosed weeks apart", "topic": "famili just time peopl year home life day", "url": "https://winnipeg.ctvnews.ca/we-re-in-it-to-win-it-manitoba-twins-battling-cancer-diagnosed-weeks-apart-1.5027200"}, "type": "Feature"}, {"geometry": {"coordinates": [12.482932, 41.89332], "type": "Point"}, "properties": {"category": "lifestyle", "int_sc": "86", "local_sc": "64", "location": "Rome", "nat_sc": "10", "prov_sc": "30", "title": "Chuck Erion: \"A Pilgrimage to Eternity\"", "topic": "famili just time peopl year home life day", "url": "https://www.therecord.com/entertainment/books/2020/01/03/chuck-erion-a-pilgrimage-to-eternity.html"}, "type": "Feature"}, {"geometry": {"coordinates": [-80.108415, 44.327104], "type": "Point"}, "properties": {"category": "lifestyle", "int_sc": "40", "local_sc": "22", "location": "CREEMORE", "nat_sc": "90", "prov_sc": "76", "title": "Clearview Station offers unique bed and breakfast", "topic": "famili just time peopl year home life day", "url": "http://barrie.ctvnews.ca/clearview-station-offers-unique-bed-and-breakfast-1.5027619"}, "type": "Feature"}, {"geometry": {"coordinates": [7.416228, 51.11779], "type": "Point"}, "properties": {"category": "lifestyle", "int_sc": "29", "local_sc": "45", "location": "Lifetime", "nat_sc": "4", "prov_sc": "2", "title": "\u2018Unsolved Mysteries\u2019 returns, because 2020 isn\u2019t scary enough", "topic": "famili just time peopl year home life day", "url": "https://www.therecord.com/ts/entertainment/movies/2020/07/03/unsolved-mysteries-returns-because-2020-isnt-scary-enough.html"}, "type": "Feature"}, {"geometry": {"coordinates": [-79.872858, 43.25608], "type": "Point"}, "properties": {"category": "lifestyle", "int_sc": "22", "local_sc": "15", "location": "Hamilton", "nat_sc": "44", "prov_sc": "56", "title": "Community support for family dealing with baby's rare cancer diagnosis", "topic": "famili just time peopl year home life day", "url": "https://kitchener.ctvnews.ca/community-support-for-family-dealing-with-baby-s-rare-cancer-diagnosis-1.5027760"}, "type": "Feature"}, {"geometry": {"coordinates": [-99.133178, 19.43263], "type": "Point"}, "properties": {"category": "lifestyle", "int_sc": "60", "local_sc": "31", "location": "Mexico", "nat_sc": "90", "prov_sc": "59", "title": "Suburban Chronicles: Cutting myself some slack as my clothes become tighter", "topic": "famili just time peopl year home life day", "url": "https://www.therecord.com/life/opinion/2020/07/10/suburban-chronicles-cutting-myself-some-slack-as-my-clothes-become-tighter.html"}, "type": "Feature"}, {"geometry": {"coordinates": [-80.486177, 43.448732], "type": "Point"}, "properties": {"category": "lifestyle", "int_sc": "39", "local_sc": "50", "location": "Kitchener", "nat_sc": "40", "prov_sc": "87", "title": "In the Garden: Plants with spider connections a welcome addition", "topic": "famili just time peopl year home life day", "url": "https://www.therecord.com/life/advice/2020/07/10/in-the-garden-plants-with-spider-connections-a-welcome-addition.html"}, "type": "Feature"}, {"geometry": {"coordinates": [-80.486177, 43.448732], "type": "Point"}, "properties": {"category": "lifestyle", "int_sc": "88", "local_sc": "15", "location": "Kitchener", "nat_sc": "93", "prov_sc": "20", "title": "Out There: Why do men carry baggage but not bags?", "topic": "famili just time peopl year home life day", "url": "https://www.therecord.com/life/opinion/2020/07/10/out-there-why-do-men-carry-baggage-but-not-bags.html"}, "type": "Feature"}, {"geometry": {"coordinates": [-86.000977, 50.000678], "type": "Point"}, "properties": {"category": "lifestyle", "int_sc": "14", "local_sc": "43", "location": "Ontario", "nat_sc": "18", "prov_sc": "82", "title": "Amateur northern Ontario nature photographer captures two simultaneous celestial events", "topic": "famili just time peopl year home life day", "url": "https://northernontario.ctvnews.ca/amateur-northern-ontario-nature-photographer-captures-two-simultaneous-celestial-events-1.5026999"}, "type": "Feature"}, {"geometry": {"coordinates": [34.924965, 38.959759], "type": "Point"}, "properties": {"category": "lifestyle", "int_sc": "51", "local_sc": "4", "location": "turkey", "nat_sc": "92", "prov_sc": "72", "title": "'Turk' the turkey finds a new home in Bridgeland", "topic": "famili just time peopl year home life day", "url": "https://calgary.ctvnews.ca/turk-the-turkey-finds-a-new-home-in-bridgeland-1.5025675"}, "type": "Feature"}, {"geometry": {"coordinates": [-114.062589, 51.053423], "type": "Point"}, "properties": {"category": "lifestyle", "int_sc": "71", "local_sc": "32", "location": "Calgary", "nat_sc": "15", "prov_sc": "83", "title": "Calgary residents frustrated the city doesn't protect mature trees on private property", "topic": "famili just time peopl year home life day", "url": "https://calgary.ctvnews.ca/calgary-residents-frustrated-the-city-doesn-t-protect-mature-trees-on-private-property-1.5027476"}, "type": "Feature"}, {"geometry": {"coordinates": [-100.398775, 32.271931], "type": "Point"}, "properties": {"category": "lifestyle", "int_sc": "87", "local_sc": "35", "location": "Nolan", "nat_sc": "24", "prov_sc": "79", "title": "Flash From the Past: Famous 20th century private eye is rooted in Kitchener", "topic": "famili just time peopl year home life day", "url": "https://www.therecord.com/life/local-history/2020/07/10/flash-from-the-past-famous-20th-century-private-eye-is-rooted-in-kitchener.html"}, "type": "Feature"}, {"geometry": {"coordinates": [-122.330062, 47.603832], "type": "Point"}, "properties": {"category": "lifestyle", "int_sc": "49", "local_sc": "45", "location": "Seattle", "nat_sc": "64", "prov_sc": "82", "title": "Pandemic has travellers rediscovering the open road, and camper vans", "topic": "famili just time peopl year home life day", "url": "https://www.therecord.com/ts/life/travel/2020/07/10/pandemic-has-travellers-rediscovering-the-open-road-and-camper-vans.html"}, "type": "Feature"}, {"geometry": {"coordinates": [80.452039, 29.450883], "type": "Point"}, "properties": {"category": "lifestyle", "int_sc": "30", "local_sc": "58", "location": "Salena", "nat_sc": "32", "prov_sc": "76", "title": "Laura Elizabeth Blades Gillespie Blades Gillespie \u2013 Surrey Now-Leader", "topic": "famili just time peopl year home life day", "url": "https://www.surreynowleader.com/obituaries/laura-elizabeth-blades-gillespie-blades-gillespie/"}, "type": "Feature"}, {"geometry": {"coordinates": [-92.382085, 31.826556], "type": "Point"}, "properties": {"category": "lifestyle", "int_sc": "25", "local_sc": "82", "location": "Tansey", "nat_sc": "70", "prov_sc": "25", "title": "Sask. entomologist warns gardeners to watch for Red Lily Leaf Beetle", "topic": "famili just time peopl year home life day", "url": "http://regina.ctvnews.ca/sask-entomologist-warns-gardeners-to-watch-for-red-lily-leaf-beetle-1.5025795"}, "type": "Feature"}, {"geometry": {"coordinates": [-79.383935, 43.653482], "type": "Point"}, "properties": {"category": "lifestyle", "int_sc": "29", "local_sc": "58", "location": "Toronto", "nat_sc": "39", "prov_sc": "43", "title": "Camp lessons for kids ... and for parents", "topic": "famili just time peopl year home life day", "url": "https://www.therecord.com/ts/initiatives/fresh_air_fund/2020/07/13/camp-lessons-for-kids-and-for-parents.html"}, "type": "Feature"}, {"geometry": {"coordinates": [-88.732158, 45.189584], "type": "Point"}, "properties": {"category": "lifestyle", "int_sc": "85", "local_sc": "46", "location": "U.S.", "nat_sc": "79", "prov_sc": "40", "title": "Abbotsford family raising funds for custom trailer for daughter with severe allergies", "topic": "famili just time peopl year home life day", "url": "https://bc.ctvnews.ca/abbotsford-family-raising-funds-for-custom-trailer-for-daughter-with-severe-allergies-1.5024570"}, "type": "Feature"}, {"geometry": {"coordinates": [5.17387, 14.402428], "type": "Point"}, "properties": {"category": "lifestyle", "int_sc": "10", "local_sc": "32", "location": "kamado", "nat_sc": "44", "prov_sc": "29", "title": "How to turn your grill into a meat smoker", "topic": "famili just time peopl year home life day", "url": "https://bc.ctvnews.ca/how-to-turn-your-grill-into-a-meat-smoker-1.5018302"}, "type": "Feature"}, {"geometry": {"coordinates": [-123.113953, 49.260872], "type": "Point"}, "properties": {"category": "lifestyle", "int_sc": "50", "local_sc": "60", "location": "Vancouver", "nat_sc": "19", "prov_sc": "5", "title": "In photos: Owlets learn to fly and hunt in Delta, B.C.", "topic": "famili just time peopl year home life day", "url": "https://bc.ctvnews.ca/in-photos-owlets-learn-to-fly-and-hunt-in-delta-b-c-1.4933032"}, "type": "Feature"}, {"geometry": {"coordinates": [103.819499, 1.357107], "type": "Point"}, "properties": {"category": "lifestyle", "int_sc": "76", "local_sc": "8", "location": "Singapore", "nat_sc": "66", "prov_sc": "60", "title": "Rambunctious rats trade blows as cat 'referees'", "topic": "famili just time peopl year home life day", "url": "https://torontosun.com/news/weird/rambunctious-rats-trade-blows-as-cat-referees"}, "type": "Feature"}, {"geometry": {"coordinates": [-79.377972, 43.671944], "type": "Point"}, "properties": {"category": "lifestyle", "int_sc": "34", "local_sc": "84", "location": "Toronto", "nat_sc": "45", "prov_sc": "2", "title": "Best shots in the rain", "topic": "famili just time peopl year home life day", "url": "http://nationalpost.sportstonews.com/2020/04/18/best-shots-in-the-rain-2/"}, "type": "Feature"}, {"geometry": {"coordinates": [-115.002136, 55.001251], "type": "Point"}, "properties": {"category": "lifestyle", "int_sc": "99", "local_sc": "93", "location": "Alberta", "nat_sc": "22", "prov_sc": "68", "title": "\u2018A miracle:\u2019 20 years after deadly tornado Alberta family thankful for survival", "topic": "famili just time peopl year home life day", "url": "https://www.therecord.com/ts/news/canada/2020/07/14/a-miracle-20-years-after-deadly-tornado-alberta-family-thankful-for-survival.html"}, "type": "Feature"}, {"geometry": {"coordinates": [-84.759936, 33.721775], "type": "Point"}, "properties": {"category": "lifestyle", "int_sc": "6", "local_sc": "46", "location": "Talerico", "nat_sc": "91", "prov_sc": "19", "title": "Windsor man receives homecoming surprise after 113 days of COVID-19 hospitalization", "topic": "famili just time peopl year home life day", "url": "http://windsor.ctvnews.ca/windsor-man-receives-homecoming-surprise-after-113-days-of-covid-19-hospitalization-1.5028756"}, "type": "Feature"}, {"geometry": {"coordinates": [-0.54024, 52.795479], "type": "Point"}, "properties": {"category": "lifestyle", "int_sc": "76", "local_sc": "93", "location": "England", "nat_sc": "4", "prov_sc": "52", "title": "Bessie celebrates 105th birthday having survived two pandemics", "topic": "famili just time peopl year home life day", "url": "https://toronto.ctvnews.ca/bessie-celebrates-105th-birthday-having-survived-two-pandemics-1.5021338"}, "type": "Feature"}, {"geometry": {"coordinates": [-79.383935, 43.653482], "type": "Point"}, "properties": {"category": "lifestyle", "int_sc": "13", "local_sc": "39", "location": "Toronto", "nat_sc": "63", "prov_sc": "80", "title": "DIY ideas to keep your kids entertained at home during the COVID-19 pandemic", "topic": "famili just time peopl year home life day", "url": "https://toronto.ctvnews.ca/diy-ideas-to-keep-your-kids-entertained-at-home-during-the-covid-19-pandemic-1.4868512"}, "type": "Feature"}, {"geometry": {"coordinates": [122.73121, 12.750349], "type": "Point"}, "properties": {"category": "lifestyle", "int_sc": "23", "local_sc": "31", "location": "Philippines", "nat_sc": "18", "prov_sc": "46", "title": "Family celebrates COVID-19 survivor\u2019s 102nd birthday outside Mississauga nursing home", "topic": "famili just time peopl year home life day", "url": "https://toronto.ctvnews.ca/family-celebrates-covid-19-survivor-s-102nd-birthday-outside-mississauga-nursing-home-1.5017773"}, "type": "Feature"}, {"geometry": {"coordinates": [-75.697472, 45.421861], "type": "Point"}, "properties": {"category": "lifestyle", "int_sc": "94", "local_sc": "41", "location": "Ottawa", "nat_sc": "82", "prov_sc": "32", "title": "TDSB says it will find 'creative' way to keep French in pandemic plan", "topic": "famili just time peopl year home life day", "url": "https://toronto.ctvnews.ca/tdsb-says-it-will-find-creative-way-to-keep-french-in-pandemic-plan-1.5026626"}, "type": "Feature"}, {"geometry": {"coordinates": [-75.690308, 45.421106], "type": "Point"}, "properties": {"category": "lifestyle", "int_sc": "96", "local_sc": "39", "location": "Ottawa", "nat_sc": "70", "prov_sc": "27", "title": "Hidden Gems: Exploring your own Ottawa neighbourhood this summer", "topic": "famili just time peopl year home life day", "url": "https://ottawa.ctvnews.ca/hidden-gems-exploring-your-own-ottawa-neighbourhood-this-summer-1.5027077"}, "type": "Feature"}, {"geometry": {"coordinates": [-79.383935, 43.653482], "type": "Point"}, "properties": {"category": "lifestyle", "int_sc": "72", "local_sc": "15", "location": "Toronto", "nat_sc": "41", "prov_sc": "85", "title": "Children need new challenges, and camp\u2019s the perfect place", "topic": "famili just time peopl year home life day", "url": "https://www.therecord.com/ts/initiatives/fresh_air_fund/2020/07/14/children-need-new-challenges-and-camps-the-perfect-place.html"}, "type": "Feature"}, {"geometry": {"coordinates": [114.162813, 22.279328], "type": "Point"}, "properties": {"category": "lifestyle", "int_sc": "98", "local_sc": "82", "location": "Hong Kong", "nat_sc": "84", "prov_sc": "29", "title": "Lindsay Wong: COVID-19 may be my millennial generation\u2019s diaspora, but it\u2019s also my family\u2019s latest, haunting trauma", "topic": "famili just time peopl year home life day", "url": "https://www.therecord.com/ts/entertainment/books/2020/07/11/lindsay-wong-covid-19-may-be-my-millennial-generations-diaspora-but-its-also-my-familys-latest-haunting-trauma.html"}, "type": "Feature"}, {"geometry": {"coordinates": [125.542188, 7.063378], "type": "Point"}, "properties": {"category": "lifestyle", "int_sc": "45", "local_sc": "17", "location": "Euphorbia", "nat_sc": "16", "prov_sc": "48", "title": "Low-maintenance succulents make watering a breeze", "topic": "famili just time peopl year home life day", "url": "https://www.ctvnews.ca/lifestyle/low-maintenance-succulents-make-watering-a-breeze-1.4766473"}, "type": "Feature"}, {"geometry": {"coordinates": [-118.755997, 36.701463], "type": "Point"}, "properties": {"category": "lifestyle", "int_sc": "38", "local_sc": "62", "location": "California", "nat_sc": "11", "prov_sc": "48", "title": "If you want to save bumblebees, plant these flowers in your yard", "topic": "famili just time peopl year home life day", "url": "https://www.ctvnews.ca/lifestyle/if-you-want-to-save-bumblebees-plant-these-flowers-in-your-yard-1.4786678"}, "type": "Feature"}, {"geometry": {"coordinates": [-118.755997, 36.701463], "type": "Point"}, "properties": {"category": "lifestyle", "int_sc": "53", "local_sc": "46", "location": "California", "nat_sc": "81", "prov_sc": "73", "title": "Feed the soul: In chaotic times, gardening becomes therapy", "topic": "famili just time peopl year home life day", "url": "https://www.ctvnews.ca/lifestyle/feed-the-soul-in-chaotic-times-gardening-becomes-therapy-1.4877112"}, "type": "Feature"}, {"geometry": {"coordinates": [8.321033, 49.638888], "type": "Point"}, "properties": {"category": "lifestyle", "int_sc": "29", "local_sc": "38", "location": "Lehrer", "nat_sc": "77", "prov_sc": "24", "title": "Simple design steps can take your garden to the next level", "topic": "famili just time peopl year home life day", "url": "https://www.ctvnews.ca/lifestyle/simple-design-steps-can-take-your-garden-to-the-next-level-1.5003509"}, "type": "Feature"}, {"geometry": {"coordinates": [38.357783, -0.773295], "type": "Point"}, "properties": {"category": "lifestyle", "int_sc": "19", "local_sc": "42", "location": "Daadab", "nat_sc": "11", "prov_sc": "44", "title": "\u2018Situation is very, very hard\u2019: Group looks to sponsor family in Kenyan refugee camp", "topic": "famili just time peopl year home life day", "url": "https://www.therecord.com/ts/news/canada/2020/07/13/situation-is-very-very-hard-group-looks-to-sponsor-family-in-kenyan-refugee-camp.html"}, "type": "Feature"}, {"geometry": {"coordinates": [-79.383935, 43.653482], "type": "Point"}, "properties": {"category": "lifestyle", "int_sc": "8", "local_sc": "93", "location": "Toronto", "nat_sc": "87", "prov_sc": "56", "title": "'It means a lot': Scarborough patty shop owner on the value of a Drake endorsement", "topic": "famili just time peopl year home life day", "url": "https://toronto.ctvnews.ca/it-means-a-lot-scarborough-patty-shop-owner-on-the-value-of-a-drake-endorsement-1.5017471"}, "type": "Feature"}, {"geometry": {"coordinates": [-79.039292, 35.672964], "type": "Point"}, "properties": {"category": "lifestyle", "int_sc": "82", "local_sc": "18", "location": "North Carolina", "nat_sc": "58", "prov_sc": "29", "title": "Competitive eaters nearing human limit of hot dog consumption, study says", "topic": "famili just time peopl year home life day", "url": "https://www.ctvnews.ca/lifestyle/competitive-eaters-nearing-human-limit-of-hot-dog-consumption-study-says-1.5025164"}, "type": "Feature"}, {"geometry": {"coordinates": [-79.383935, 43.653482], "type": "Point"}, "properties": {"category": "lifestyle", "int_sc": "58", "local_sc": "66", "location": "Toronto", "nat_sc": "66", "prov_sc": "71", "title": "Pandemic porch pies: Trendy Toronto pizza joint is actually in this man's backyard", "topic": "famili just time peopl year home life day", "url": "https://www.ctvnews.ca/lifestyle/pandemic-porch-pies-trendy-toronto-pizza-joint-is-actually-in-this-man-s-backyard-1.5025006"}, "type": "Feature"}, {"geometry": {"coordinates": [-77.43428, 37.538509], "type": "Point"}, "properties": {"category": "lifestyle", "int_sc": "36", "local_sc": "40", "location": "Richmond", "nat_sc": "53", "prov_sc": "83", "title": "Eau de Space brings the scent of outer space down to Earth", "topic": "famili just time peopl year home life day", "url": "https://www.ctvnews.ca/lifestyle/eau-de-space-this-is-what-the-final-frontier-smells-like-1.5013932"}, "type": "Feature"}, {"geometry": {"coordinates": [-0.127647, 51.507322], "type": "Point"}, "properties": {"category": "lifestyle", "int_sc": "66", "local_sc": "77", "location": "London", "nat_sc": "63", "prov_sc": "71", "title": "'I will make you live forever': Terry Fox publicist recalls first Marathon of Hope, 40 years later", "topic": "famili just time peopl year home life day", "url": "http://london.ctvnews.ca/i-will-make-you-live-forever-terry-fox-publicist-recalls-first-marathon-of-hope-40-years-later-1.5027285"}, "type": "Feature"}, {"geometry": {"coordinates": [-78.492772, 37.123224], "type": "Point"}, "properties": {"category": "lifestyle", "int_sc": "73", "local_sc": "14", "location": "Virginia", "nat_sc": "24", "prov_sc": "89", "title": "'Dirty Dancing' lake mysteriously filling up with water 12 years after it dried up", "topic": "famili just time peopl year home life day", "url": "https://www.ctvnews.ca/lifestyle/dirty-dancing-lake-mysteriously-filling-up-with-water-12-years-after-it-dried-up-1.5024999"}, "type": "Feature"}, {"geometry": {"coordinates": [-0.127647, 51.507322], "type": "Point"}, "properties": {"category": "lifestyle", "int_sc": "49", "local_sc": "92", "location": "London", "nat_sc": "1", "prov_sc": "34", "title": "Backyard security camera sparks wider privacy concerns", "topic": "famili just time peopl year home life day", "url": "http://london.ctvnews.ca/backyard-security-camera-sparks-wider-privacy-concerns-1.5025959"}, "type": "Feature"}, {"geometry": {"coordinates": [-79.383935, 43.653482], "type": "Point"}, "properties": {"category": "lifestyle", "int_sc": "67", "local_sc": "64", "location": "Toronto", "nat_sc": "91", "prov_sc": "69", "title": "N.S. woman has waited in Toronto seven months and counting for double-lung transplant", "topic": "famili just time peopl year home life day", "url": "https://atlantic.ctvnews.ca/n-s-woman-has-waited-in-toronto-seven-months-and-counting-for-double-lung-transplant-1.5027686"}, "type": "Feature"}, {"geometry": {"coordinates": [-123.113953, 49.260872], "type": "Point"}, "properties": {"category": "lifestyle", "int_sc": "35", "local_sc": "56", "location": "Vancouver", "nat_sc": "63", "prov_sc": "98", "title": "Comet NEOWISE: How to spot the space phenomenon in Vancouver", "topic": "famili just time peopl year home life day", "url": "https://bc.ctvnews.ca/here-s-how-to-see-the-comet-neowise-from-vancouver-1.5028689"}, "type": "Feature"}, {"geometry": {"coordinates": [-125.002441, 55.001251], "type": "Point"}, "properties": {"category": "lifestyle", "int_sc": "83", "local_sc": "46", "location": "British Columbia", "nat_sc": "29", "prov_sc": "64", "title": "Orange is the new gin \u2014 with a range of flavours and no oversweetening", "topic": "famili just time peopl year home life day", "url": "https://www.thestar.com/life/food_wine/2020/06/29/orange-is-the-new-gin-with-a-range-of-flavours-and-no-oversweetening.html"}, "type": "Feature"}, {"geometry": {"coordinates": [-79.390731, 43.649765], "type": "Point"}, "properties": {"category": "lifestyle", "int_sc": "77", "local_sc": "44", "location": "CP24", "nat_sc": "38", "prov_sc": "76", "title": "Maybe it\u2019s time for a psychological test for drivers", "topic": "famili just time peopl year home life day", "url": "https://www.thestar.com/autos/opinion/2020/07/03/maybe-its-time-for-a-psychological-test-for-drivers.html"}, "type": "Feature"}, {"geometry": {"coordinates": [74.369865, 56.902587], "type": "Point"}, "properties": {"category": "lifestyle", "int_sc": "2", "local_sc": "38", "location": "Tara", "nat_sc": "38", "prov_sc": "70", "title": "Life and style with Tara Elston \u2013 Maple Ridge News", "topic": "famili just time peopl year home life day", "url": "https://www.mapleridgenews.com/life/life-and-style-with-tara-elston/"}, "type": "Feature"}, {"geometry": {"coordinates": [-108.913754, 45.295781], "type": "Point"}, "properties": {"category": "lifestyle", "int_sc": "15", "local_sc": "98", "location": "Bridger", "nat_sc": "25", "prov_sc": "90", "title": "Boy gets 90 stitches after saving little sister from dog attack", "topic": "famili just time peopl year home life day", "url": "https://www.ctvnews.ca/world/boy-gets-90-stitches-after-saving-little-sister-from-dog-attack-1.5025401"}, "type": "Feature"}, {"geometry": {"coordinates": [0.131626, 52.203621], "type": "Point"}, "properties": {"category": "lifestyle", "int_sc": "7", "local_sc": "55", "location": "Spotify", "nat_sc": "87", "prov_sc": "73", "title": "Life and style with Claudia Knoglinger \u2013 Maple Ridge News", "topic": "famili just time peopl year home life day", "url": "https://www.mapleridgenews.com/life/life-and-style-with-claudia-knoglinger/"}, "type": "Feature"}, {"geometry": {"coordinates": [-86.000977, 50.000678], "type": "Point"}, "properties": {"category": "lifestyle", "int_sc": "85", "local_sc": "99", "location": "Ontario", "nat_sc": "92", "prov_sc": "45", "title": "'School saved me' from abuse as a child, says mom calling for kids' return to classrooms", "topic": "famili just time peopl year home life day", "url": "https://www.ctvnews.ca/health/coronavirus/school-saved-me-from-abuse-as-a-child-says-mom-calling-for-kids-return-to-classrooms-1.5026884"}, "type": "Feature"}, {"geometry": {"coordinates": [-119.498291, 49.889326], "type": "Point"}, "properties": {"category": "lifestyle", "int_sc": "62", "local_sc": "74", "location": "Kelowna", "nat_sc": "72", "prov_sc": "93", "title": "Life and Style with Terry Simpson \u2013 Maple Ridge News", "topic": "famili just time peopl year home life day", "url": "https://www.mapleridgenews.com/life/life-and-style-with-terry-simpson/"}, "type": "Feature"}, {"geometry": {"coordinates": [-122.595583, 49.220778], "type": "Point"}, "properties": {"category": "lifestyle", "int_sc": "97", "local_sc": "48", "location": "Maple Ridge", "nat_sc": "90", "prov_sc": "46", "title": "A whole new ball game, you can feel good about (and from) this snack \u2013 Maple Ridge News", "topic": "famili just time peopl year home life day", "url": "https://www.mapleridgenews.com/life/a-whole-new-ball-game-you-can-feel-good-about-and-from-this-snack/"}, "type": "Feature"}, {"geometry": {"coordinates": [-69.830344, 18.503611], "type": "Point"}, "properties": {"category": "lifestyle", "int_sc": "78", "local_sc": "89", "location": "Ingrid", "nat_sc": "52", "prov_sc": "40", "title": "Effortless design and timeless elements in classic condo \u2013 Maple Ridge News", "topic": "famili just time peopl year home life day", "url": "https://www.mapleridgenews.com/life/effortless-design-and-timeless-elements-in-classic-condo/"}, "type": "Feature"}, {"geometry": {"coordinates": [-4.838065, 39.326234], "type": "Point"}, "properties": {"category": "lifestyle", "int_sc": "99", "local_sc": "20", "location": "Spain", "nat_sc": "50", "prov_sc": "78", "title": "When long-time chef Nicholas Waters first started Toque Catering in 2013, he never expected it to take off \u2013 Maple Ridge News", "topic": "famili just time peopl year home life day", "url": "https://www.mapleridgenews.com/life/when-long-time-chef-nicholas-waters-first-started-toque-catering-in-2013-he-never-expected-it-to-take-off/"}, "type": "Feature"}, {"geometry": {"coordinates": [-122.595583, 49.220778], "type": "Point"}, "properties": {"category": "lifestyle", "int_sc": "11", "local_sc": "33", "location": "Maple Ridge", "nat_sc": "51", "prov_sc": "90", "title": "Victoria\u2019s 2020 Graduates \u2013 A Time to Celebrate \u2013 Maple Ridge News", "topic": "famili just time peopl year home life day", "url": "https://www.mapleridgenews.com/life/victorias-2020-graduates-a-time-to-celebrate/"}, "type": "Feature"}, {"geometry": {"coordinates": [-125.002441, 55.001251], "type": "Point"}, "properties": {"category": "lifestyle", "int_sc": "67", "local_sc": "71", "location": "British Columbia", "nat_sc": "34", "prov_sc": "69", "title": "Camping offers a great pandemic escape, for less money than you might think \u2013 Maple Ridge News", "topic": "famili just time peopl year home life day", "url": "https://www.mapleridgenews.com/trending-now/camping-offers-a-great-pandemic-escape-for-less-money-than-you-might-think/"}, "type": "Feature"}, {"geometry": {"coordinates": [-108.913754, 45.295781], "type": "Point"}, "properties": {"category": "lifestyle", "int_sc": "74", "local_sc": "11", "location": "Bridger", "nat_sc": "19", "prov_sc": "75", "title": "Chris Evans sending 'Captain America' shield to little boy who saved sister from dog attack", "topic": "famili just time peopl year home life day", "url": "https://www.ctvnews.ca/entertainment/chris-evans-sending-captain-america-shield-to-little-boy-who-saved-sister-from-dog-attack-1.5027123"}, "type": "Feature"}, {"geometry": {"coordinates": [-117.698227, 49.209152], "type": "Point"}, "properties": {"category": "lifestyle", "int_sc": "19", "local_sc": "28", "location": "Genelle", "nat_sc": "77", "prov_sc": "5", "title": "Lost dog swims Columbia River multiple times searching for home \u2013 Maple Ridge News", "topic": "famili just time peopl year home life day", "url": "https://www.mapleridgenews.com/trending-now/lost-dog-swims-columbia-river-multiple-times-searching-for-home/"}, "type": "Feature"}, {"geometry": {"coordinates": [-128.599548, 54.517271], "type": "Point"}, "properties": {"category": "lifestyle", "int_sc": "15", "local_sc": "35", "location": "Terrace", "nat_sc": "10", "prov_sc": "6", "title": "Conservation officers relocate Spirit bear known to roam northwestern B.C. \u2013 Maple Ridge News", "topic": "famili just time peopl year home life day", "url": "https://www.mapleridgenews.com/trending-now/conservation-officers-relocate-spirit-bear-known-to-roam-northwestern-b-c/"}, "type": "Feature"}, {"geometry": {"coordinates": [-2.906199, 54.379483], "type": "Point"}, "properties": {"category": "lifestyle", "int_sc": "92", "local_sc": "12", "location": "Windermere", "nat_sc": "39", "prov_sc": "47", "title": "VIDEO: Alberta man rescues baby eagle believed to be drowning in East Kootenay lake \u2013 Maple Ridge News", "topic": "famili just time peopl year home life day", "url": "https://www.mapleridgenews.com/trending-now/video-alberta-man-rescues-baby-eagle-believed-to-be-drowning-in-kootenay-lake/"}, "type": "Feature"}, {"geometry": {"coordinates": [-149.680909, 64.445961], "type": "Point"}, "properties": {"category": "lifestyle", "int_sc": "20", "local_sc": "43", "location": "Alaska", "nat_sc": "73", "prov_sc": "46", "title": "City votes to raze site where first Alaska flag was sewn", "topic": "famili just time peopl year home life day", "url": "https://www.therecord.com/ts/news/world/us/2020/07/14/city-votes-to-raze-site-where-first-alaska-flag-was-sewn.html"}, "type": "Feature"}, {"geometry": {"coordinates": [149.077032, -35.217463], "type": "Point"}, "properties": {"category": "lifestyle", "int_sc": "62", "local_sc": "35", "location": "McKellar", "nat_sc": "45", "prov_sc": "64", "title": "Bike lanes? Do we have to go through this again?", "topic": "famili just time peopl year home life day", "url": "https://www.thestar.com/autos/opinion/2020/07/10/bike-lanes-do-we-have-to-go-through-this-again.html"}, "type": "Feature"}, {"geometry": {"coordinates": [-123.113953, 49.260872], "type": "Point"}, "properties": {"category": "lifestyle", "int_sc": "28", "local_sc": "90", "location": "Vancouver", "nat_sc": "86", "prov_sc": "51", "title": "Fraser Valley loses the Keith Wilson Waver as Ron Hupper passes away \u2013 Maple Ridge News", "topic": "famili just time peopl year home life day", "url": "https://www.mapleridgenews.com/news/fraser-valley-loses-the-keith-wilson-waver-as-ron-hupper-passes-away/"}, "type": "Feature"}, {"geometry": {"coordinates": [-0.54024, 52.795479], "type": "Point"}, "properties": {"category": "lifestyle", "int_sc": "57", "local_sc": "85", "location": "England", "nat_sc": "60", "prov_sc": "93", "title": "Before DIY sourdough starters became popular, there was home economics \u2013 Abbotsford News", "topic": "famili just time peopl year home life day", "url": "https://www.abbynews.com/opinion/before-diy-sourdough-starters-became-popular-there-was-home-economics/"}, "type": "Feature"}, {"geometry": {"coordinates": [-88.732158, 45.189584], "type": "Point"}, "properties": {"category": "lifestyle", "int_sc": "23", "local_sc": "54", "location": "U.S.", "nat_sc": "69", "prov_sc": "70", "title": "'Yes we exist': Black fans eye NASCAR's work to diversify", "topic": "famili just time peopl year home life day", "url": "https://www.ctvnews.ca/sports/yes-we-exist-black-fans-eye-nascar-s-work-to-diversify-1.5028004"}, "type": "Feature"}, {"geometry": {"coordinates": [78.667743, 22.351115], "type": "Point"}, "properties": {"category": "lifestyle", "int_sc": "95", "local_sc": "59", "location": "India", "nat_sc": "91", "prov_sc": "27", "title": "Over 1 million marooned in Bangladesh as floods worsen", "topic": "famili just time peopl year home life day", "url": "https://www.therecord.com/ts/news/world/asia/2020/07/14/over-1-million-marooned-in-bangladesh-as-floods-worsen.html"}, "type": "Feature"}, {"geometry": {"coordinates": [-100.445882, 39.78373], "type": "Point"}, "properties": {"category": "lifestyle", "int_sc": "54", "local_sc": "76", "location": "us", "nat_sc": "16", "prov_sc": "78", "title": "COLUMN: We can all do more \u2013 until we can\u2019t. Thank you for doing what you can. \u2013 Abbotsford News", "topic": "famili just time peopl year home life day", "url": "https://www.abbynews.com/opinion/column-we-can-all-do-more-until-we-cant-thank-you-for-doing-what-you-can/"}, "type": "Feature"}, {"geometry": {"coordinates": [-107.991707, 61.066692], "type": "Point"}, "properties": {"category": "lifestyle", "int_sc": "41", "local_sc": "8", "location": "Canada", "nat_sc": "49", "prov_sc": "94", "title": "Earth Day: A new relationship to wildlife is needed for nature and people \u2013 Abbotsford News", "topic": "famili just time peopl year home life day", "url": "https://www.abbynews.com/opinion/earth-day-a-new-relationship-to-wildlife-is-needed-for-nature-and-people/"}, "type": "Feature"}, {"geometry": {"coordinates": [-122.329479, 49.052116], "type": "Point"}, "properties": {"category": "lifestyle", "int_sc": "15", "local_sc": "74", "location": "Abbotsford", "nat_sc": "93", "prov_sc": "65", "title": "Sharing trusted hearts, endless support at times of greatest need \u2013 Abbotsford News", "topic": "famili just time peopl year home life day", "url": "https://www.abbynews.com/marketplace/sharing-trusted-hearts-endless-support-at-times-of-greatest-need/"}, "type": "Feature"}, {"geometry": {"coordinates": [-123.113953, 49.260872], "type": "Point"}, "properties": {"category": "lifestyle", "int_sc": "54", "local_sc": "35", "location": "Vancouver", "nat_sc": "44", "prov_sc": "35", "title": "Northern lights 'photobomb' images of Comet NEOWISE over Canada", "topic": "famili just time peopl year home life day", "url": "https://www.ctvnews.ca/sci-tech/northern-lights-photobomb-images-of-comet-neowise-over-canada-1.5026912"}, "type": "Feature"}, {"geometry": {"coordinates": [2.12276, 7.283434], "type": "Point"}, "properties": {"category": "lifestyle", "int_sc": "80", "local_sc": "22", "location": "Zoe", "nat_sc": "7", "prov_sc": "40", "title": "That day I was a life model \u2013 Maple Ridge News", "topic": "famili just time peopl year home life day", "url": "https://www.mapleridgenews.com/life/that-day-i-was-a-life-model/"}, "type": "Feature"}, {"geometry": {"coordinates": [55.188761, 25.07501], "type": "Point"}, "properties": {"category": "lifestyle", "int_sc": "53", "local_sc": "6", "location": "Dubai", "nat_sc": "87", "prov_sc": "5", "title": "Secrets and Lives with Tanner Caouette \u2013 Maple Ridge News", "topic": "famili just time peopl year home life day", "url": "https://www.mapleridgenews.com/life/secrets-and-lives-with-tanner-caouette/"}, "type": "Feature"}, {"geometry": {"coordinates": [-125.002441, 55.001251], "type": "Point"}, "properties": {"category": "lifestyle", "int_sc": "6", "local_sc": "79", "location": "British Columbia", "nat_sc": "79", "prov_sc": "20", "title": "Menno Home in Abbotsford keeps families connected \u2013 Abbotsford News", "topic": "famili just time peopl year home life day", "url": "https://www.abbynews.com/community/menno-home-in-abbotsford-keeps-families-connected/"}, "type": "Feature"}, {"geometry": {"coordinates": [44.673665, 40.769627], "type": "Point"}, "properties": {"category": "lifestyle", "int_sc": "90", "local_sc": "3", "location": "A+", "nat_sc": "62", "prov_sc": "97", "title": "A bright future awaits for your cabinets \u2013 Abbotsford News", "topic": "famili just time peopl year home life day", "url": "https://www.abbynews.com/marketplace/a-bright-future-awaits-for-your-cabinets/"}, "type": "Feature"}, {"geometry": {"coordinates": [-122.595583, 49.220778], "type": "Point"}, "properties": {"category": "lifestyle", "int_sc": "48", "local_sc": "10", "location": "Maple Ridge", "nat_sc": "17", "prov_sc": "47", "title": "Land ho! 2020 Vancouver International Boat Show features something for everyone \u2013 Maple Ridge News", "topic": "famili just time peopl year home life day", "url": "https://www.mapleridgenews.com/marketplace/land-ho-2020-vancouver-international-boat-show-features-something-for-everyone/"}, "type": "Feature"}, {"geometry": {"coordinates": [-53.2, -10.333333], "type": "Point"}, "properties": {"category": "lifestyle", "int_sc": "49", "local_sc": "71", "location": "Brazil", "nat_sc": "50", "prov_sc": "29", "title": "Say cheese! This denturist brings smiles back to life \u2013 Maple Ridge News", "topic": "famili just time peopl year home life day", "url": "https://www.mapleridgenews.com/marketplace/say-cheese-this-denturist-brings-smiles-back-to-life/"}, "type": "Feature"}, {"geometry": {"coordinates": [-122.329479, 49.052116], "type": "Point"}, "properties": {"category": "lifestyle", "int_sc": "97", "local_sc": "99", "location": "Abbotsford", "nat_sc": "53", "prov_sc": "24", "title": "ON COOKING: Chef Dez says brine meat before they hit the grill \u2013 Maple Ridge News", "topic": "famili just time peopl year home life day", "url": "https://www.mapleridgenews.com/opinion/on-cooking-chef-dez-says-bring-meat-before-they-hit-the-grill/"}, "type": "Feature"}, {"geometry": {"coordinates": [-123.155861, 49.698074], "type": "Point"}, "properties": {"category": "lifestyle", "int_sc": "11", "local_sc": "75", "location": "Squamish", "nat_sc": "33", "prov_sc": "92", "title": "3 New Ways to Explore Vancouver and the Sea-to-Sky \u2013 Langley Advance Times", "topic": "famili just time peopl year home life day", "url": "https://www.langleyadvancetimes.com/marketplace/3-new-ways-to-explore-vancouver-and-the-sea-to-sky/"}, "type": "Feature"}, {"geometry": {"coordinates": [-120.339416, 50.675827], "type": "Point"}, "properties": {"category": "lifestyle", "int_sc": "25", "local_sc": "10", "location": "Kamloops", "nat_sc": "86", "prov_sc": "36", "title": "Rivers, Ranches and Ranges: From Historic Sites to Wilderness Adventure \u2013 Langley Advance Times", "topic": "famili just time peopl year home life day", "url": "https://www.langleyadvancetimes.com/marketplace/rivers-ranches-and-ranges-from-historic-sites-to-wilderness-adventure/"}, "type": "Feature"}, {"geometry": {"coordinates": [-88.732158, 45.189584], "type": "Point"}, "properties": {"category": "lifestyle", "int_sc": "88", "local_sc": "48", "location": "U.S.", "nat_sc": "50", "prov_sc": "42", "title": "Community activists pull no punches discussing anti-Black racism protests", "topic": "famili just time peopl year home life day", "url": "https://www.therecord.com/opinion/columnists/2020/06/08/community-activists-pull-no-punches-discussing-anti-black-racism-protests.html"}, "type": "Feature"}, {"geometry": {"coordinates": [-122.329479, 49.052116], "type": "Point"}, "properties": {"category": "lifestyle", "int_sc": "46", "local_sc": "19", "location": "Abbotsford", "nat_sc": "7", "prov_sc": "62", "title": "7 fun things to do at this year\u2019s Health and Wellness Show! \u2013 Langley Advance Times", "topic": "famili just time peopl year home life day", "url": "https://www.langleyadvancetimes.com/marketplace/7-fun-things-to-do-at-this-years-health-and-wellness-show/"}, "type": "Feature"}, {"geometry": {"coordinates": [-88.732158, 45.189584], "type": "Point"}, "properties": {"category": "lifestyle", "int_sc": "87", "local_sc": "30", "location": "U.S.", "nat_sc": "78", "prov_sc": "66", "title": "Inside the undefined world of a Rainbow Family gathering in B.C. \u2013 Maple Ridge News", "topic": "famili just time peopl year home life day", "url": "https://www.mapleridgenews.com/community/inside-the-undefined-world-of-a-rainbow-family-gathering-in-b-c/"}, "type": "Feature"}, {"geometry": {"coordinates": [-86.000977, 50.000678], "type": "Point"}, "properties": {"category": "lifestyle", "int_sc": "12", "local_sc": "48", "location": "Ontario", "nat_sc": "88", "prov_sc": "61", "title": "PHOTOS: South Surrey tractor project evokes \u2018$1-million smile,\u2019 helps connect neighbours \u2013 Maple Ridge News", "topic": "famili just time peopl year home life day", "url": "https://www.mapleridgenews.com/community/photos-south-surrey-tractor-project-evokes-1-million-smile-helps-connect-neighbours/"}, "type": "Feature"}, {"geometry": {"coordinates": [-113.227011, 47.732719], "type": "Point"}, "properties": {"category": "lifestyle", "int_sc": "33", "local_sc": "8", "location": "Lone Butte", "nat_sc": "45", "prov_sc": "94", "title": "96-year-old woman scales B.C. butte with help of family, friends \u2013 Maple Ridge News", "topic": "famili just time peopl year home life day", "url": "https://www.mapleridgenews.com/community/96-year-old-woman-scales-b-c-butte-with-help-of-family-friends/"}, "type": "Feature"}, {"geometry": {"coordinates": [-117.797403, 50.239611], "type": "Point"}, "properties": {"category": "lifestyle", "int_sc": "18", "local_sc": "72", "location": "Nakusp", "nat_sc": "37", "prov_sc": "47", "title": "Your family staycation could look like this \u2013 Maple Ridge News", "topic": "famili just time peopl year home life day", "url": "https://www.mapleridgenews.com/marketplace/discover-this-sweet-summer-getaway-for-your-family/"}, "type": "Feature"}, {"geometry": {"coordinates": [-77.727883, 40.969989], "type": "Point"}, "properties": {"category": "lifestyle", "int_sc": "84", "local_sc": "0", "location": "Pennsylvania", "nat_sc": "43", "prov_sc": "20", "title": "Couple finds out they're living with thousands of bees after fresh honey drips down their walls", "topic": "famili just time peopl year home life day", "url": "https://www.ctvnews.ca/world/couple-finds-out-they-re-living-with-thousands-of-bees-after-fresh-honey-drips-down-their-walls-1.5025459"}, "type": "Feature"}, {"geometry": {"coordinates": [-125.002441, 55.001251], "type": "Point"}, "properties": {"category": "lifestyle", "int_sc": "21", "local_sc": "63", "location": "British Columbia", "nat_sc": "70", "prov_sc": "26", "title": "Discover your dream staycation at this hidden gem! \u2013 Maple Ridge News", "topic": "famili just time peopl year home life day", "url": "https://www.mapleridgenews.com/marketplace/discover-your-dream-staycation-at-this-hidden-gem/"}, "type": "Feature"}, {"geometry": {"coordinates": [-116.008185, 50.538892], "type": "Point"}, "properties": {"category": "lifestyle", "int_sc": "5", "local_sc": "39", "location": "Shuswap", "nat_sc": "49", "prov_sc": "38", "title": "The next chapter of your summer adventure begins here \u2013 Maple Ridge News", "topic": "famili just time peopl year home life day", "url": "https://www.mapleridgenews.com/marketplace/the-next-chapter-of-your-summer-adventure-beings-here/"}, "type": "Feature"}, {"geometry": {"coordinates": [-107.991707, 61.066692], "type": "Point"}, "properties": {"category": "lifestyle", "int_sc": "34", "local_sc": "21", "location": "Canada", "nat_sc": "54", "prov_sc": "65", "title": "'JewishPrivilege' hashtag trends on Twitter as users fight back against anti-Semitism", "topic": "famili just time peopl year home life day", "url": "https://www.ctvnews.ca/world/jewishprivilege-hashtag-trends-on-twitter-as-users-fight-back-against-anti-semitism-1.5022216"}, "type": "Feature"}, {"geometry": {"coordinates": [104.869423, 13.506639], "type": "Point"}, "properties": {"category": "lifestyle", "int_sc": "63", "local_sc": "52", "location": "Cambodia", "nat_sc": "47", "prov_sc": "65", "title": "James Peters O.D., F.A.A.O. Johnson \u2013 Maple Ridge News", "topic": "famili just time peopl year home life day", "url": "https://www.mapleridgenews.com/obituaries/james-peters-o-d-f-a-a-o-johnson/"}, "type": "Feature"}, {"geometry": {"coordinates": [2.86774, 50.308367], "type": "Point"}, "properties": {"category": "lifestyle", "int_sc": "83", "local_sc": "74", "location": "Seaforth Highlanders", "nat_sc": "78", "prov_sc": "44", "title": "Dianna Louise \u2018Dee\u2019 Parry (n\u00e9e Ling) \u2013 Maple Ridge News", "topic": "famili just time peopl year home life day", "url": "https://www.mapleridgenews.com/obituaries/dianna-louise-dee-parry-nee-ling/"}, "type": "Feature"}, {"geometry": {"coordinates": [-121.766667, 49.233333], "type": "Point"}, "properties": {"category": "lifestyle", "int_sc": "62", "local_sc": "30", "location": "Agassiz", "nat_sc": "16", "prov_sc": "47", "title": "Abbotsford man wins $1 million in Lotto 6", "topic": "famili just time peopl year home life day", "url": "https://www.abbynews.com/news/abbotsford-man-wins-1-million-in-lotto-6-49-draw/"}, "type": "Feature"}, {"geometry": {"coordinates": [-119.666667, 49.6], "type": "Point"}, "properties": {"category": "lifestyle", "int_sc": "98", "local_sc": "66", "location": "Summerland", "nat_sc": "41", "prov_sc": "48", "title": "VIDEO: Parade held to show support for Okanagan family targeted by racism \u2013 Maple Ridge News", "topic": "famili just time peopl year home life day", "url": "https://www.mapleridgenews.com/news/video-parade-held-to-show-support-for-okanagan-family-targeted-by-racism/"}, "type": "Feature"}, {"geometry": {"coordinates": [-125.702557, 49.592949], "type": "Point"}, "properties": {"category": "lifestyle", "int_sc": "88", "local_sc": "46", "location": "Vancouver Island", "nat_sc": "9", "prov_sc": "34", "title": "Rediscover Coastal Culture and Wild Landscapes on BC\u2019s West Coast \u2013 Abbotsford News", "topic": "famili just time peopl year home life day", "url": "https://www.abbynews.com/marketplace/rediscover-coastal-culture-and-wild-landscapes-on-bcs-west-coast/"}, "type": "Feature"}, {"geometry": {"coordinates": [-77.215314, 37.181502], "type": "Point"}, "properties": {"category": "lifestyle", "int_sc": "71", "local_sc": "3", "location": "Prince George", "nat_sc": "61", "prov_sc": "94", "title": "Experience BC\u2019s Northern Wild, Nature on a Whole New Scale \u2013 Abbotsford News", "topic": "famili just time peopl year home life day", "url": "https://www.abbynews.com/marketplace/experience-bcs-northern-wild-nature-on-a-whole-new-scale/"}, "type": "Feature"}, {"geometry": {"coordinates": [-71.31877, -31.761336], "type": "Point"}, "properties": {"category": "lifestyle", "int_sc": "95", "local_sc": "20", "location": "chili", "nat_sc": "40", "prov_sc": "49", "title": "ON COOKING: Berry good ideas from Chef Dez \u2013 Maple Ridge News", "topic": "famili just time peopl year home life day", "url": "https://www.mapleridgenews.com/entertainment/on-cooking-berry-good-ideas-from-chef-dez/"}, "type": "Feature"}, {"geometry": {"coordinates": [-122.329479, 49.052116], "type": "Point"}, "properties": {"category": "lifestyle", "int_sc": "68", "local_sc": "99", "location": "Abbotsford", "nat_sc": "78", "prov_sc": "13", "title": "Create a home you\u2019ll love with styles that work \u2013 Abbotsford News", "topic": "famili just time peopl year home life day", "url": "https://www.abbynews.com/marketplace/create-a-home-youll-love-with-styles-that-work/"}, "type": "Feature"}, {"geometry": {"coordinates": [-75.697472, 45.421861], "type": "Point"}, "properties": {"category": "lifestyle", "int_sc": "79", "local_sc": "62", "location": "Ottawa", "nat_sc": "76", "prov_sc": "74", "title": "Nick Cannon posts cryptic tweets amid anti-Semitism controversy", "topic": "famili just time peopl year home life day", "url": "https://www.ctvnews.ca/entertainment/nick-cannon-posts-cryptic-tweets-amid-anti-semitism-controversy-1.5028456"}, "type": "Feature"}, {"geometry": {"coordinates": [-119.404801, 50.030486], "type": "Point"}, "properties": {"category": "lifestyle", "int_sc": "66", "local_sc": "53", "location": "Lake Country", "nat_sc": "21", "prov_sc": "77", "title": "Man found dead on Okanagan trail identified as Hollywood actor \u2013 Maple Ridge News", "topic": "famili just time peopl year home life day", "url": "https://www.mapleridgenews.com/news/man-found-dead-on-okanagan-trail-identified-as-hollywood-actor/"}, "type": "Feature"}, {"geometry": {"coordinates": [-122.329479, 49.052116], "type": "Point"}, "properties": {"category": "lifestyle", "int_sc": "42", "local_sc": "5", "location": "Abbotsford", "nat_sc": "53", "prov_sc": "75", "title": "19 times on 19th birthday: Aldergrove teen goes from crutches to conquering Abby Grind \u2013 Abbotsford News", "topic": "famili just time peopl year home life day", "url": "https://www.abbynews.com/news/19-times-on-19th-birthday-aldergrove-teen-once-immobile-conquers-abby-grind-in-good-health/"}, "type": "Feature"}, {"geometry": {"coordinates": [-86.619347, 33.42514], "type": "Point"}, "properties": {"category": "lifestyle", "int_sc": "84", "local_sc": "49", "location": "Muirfield Village", "nat_sc": "38", "prov_sc": "62", "title": "Collin Morikawa builds big lead at Muirfield Village before storms", "topic": "famili just time peopl year home life day", "url": "https://www.therecord.com/ts/sports/golf/2020/07/10/collin-morikawa-builds-big-lead-at-muirfield-village-before-storms.html"}, "type": "Feature"}, {"geometry": {"coordinates": [-107.991707, 61.066692], "type": "Point"}, "properties": {"category": "lifestyle", "int_sc": "98", "local_sc": "1", "location": "Canada", "nat_sc": "50", "prov_sc": "4", "title": "COLUMN: Why you probably agree with the Black Lives Matter slogan, even if you think you don\u2019t \u2013 Abbotsford News", "topic": "famili just time peopl year home life day", "url": "https://www.abbynews.com/opinion/column-why-you-probably-agree-with-the-black-lives-matter-slogan-even-if-you-think-you-dont/"}, "type": "Feature"}, {"geometry": {"coordinates": [-86.000977, 50.000678], "type": "Point"}, "properties": {"category": "lifestyle", "int_sc": "35", "local_sc": "90", "location": "Ontario", "nat_sc": "64", "prov_sc": "73", "title": "The Old Fashioned cocktail knows some new tricks", "topic": "famili just time peopl year home life day", "url": "https://www.therecord.com/ts/life/2020/06/24/the-old-fashioned-cocktail-knows-some-new-tricks.html"}, "type": "Feature"}, {"geometry": {"coordinates": [-125.702557, 49.592949], "type": "Point"}, "properties": {"category": "lifestyle", "int_sc": "59", "local_sc": "54", "location": "Vancouver Island", "nat_sc": "10", "prov_sc": "27", "title": "5 easy steps to getting back the kitchen you love \u2013 Chilliwack Progress", "topic": "famili just time peopl year home life day", "url": "https://www.theprogress.com/marketplace/5-easy-steps-to-getting-back-the-kitchen-you-love/"}, "type": "Feature"}, {"geometry": {"coordinates": [-122.798996, 49.102505], "type": "Point"}, "properties": {"category": "lifestyle", "int_sc": "5", "local_sc": "7", "location": "Delta", "nat_sc": "39", "prov_sc": "91", "title": "COLUMN: Getting back to normal is just a matter of time \u2013 North Delta Reporter", "topic": "famili just time peopl year home life day", "url": "https://www.northdeltareporter.com/opinion/column-getting-back-to-normal-is-just-a-matter-of-time/"}, "type": "Feature"}, {"geometry": {"coordinates": [2.351462, 48.856697], "type": "Point"}, "properties": {"category": "lifestyle", "int_sc": "90", "local_sc": "31", "location": "Paris", "nat_sc": "92", "prov_sc": "95", "title": "Women rule the latest crime fiction, along with a darkly comic turn from Scott Turow", "topic": "famili just time peopl year home life day", "url": "https://www.thestar.com/entertainment/books/2020/06/17/women-rule-the-latest-crime-fiction-along-with-a-darkly-comic-turn-from-scott-turow.html"}, "type": "Feature"}, {"geometry": {"coordinates": [-121.956167, 49.164694], "type": "Point"}, "properties": {"category": "lifestyle", "int_sc": "74", "local_sc": "93", "location": "Chilliwack", "nat_sc": "95", "prov_sc": "45", "title": "2-day solutions to get your kitchen gleaming again \u2013 Chilliwack Progress", "topic": "famili just time peopl year home life day", "url": "https://www.theprogress.com/marketplace/2-day-solutions-to-get-your-kitchen-gleaming-again/"}, "type": "Feature"}, {"geometry": {"coordinates": [-73.610364, 45.497216], "type": "Point"}, "properties": {"category": "lifestyle", "int_sc": "38", "local_sc": "6", "location": "Montreal", "nat_sc": "31", "prov_sc": "24", "title": "David Bergen on pandemic reading: \u2018The stories are not about the plague and death, but about life\u2019", "topic": "famili just time peopl year home life day", "url": "https://www.thestar.com/entertainment/books/2020/05/08/david-bergen-on-pandemic-reading-the-stories-are-not-about-the-plague-and-death-but-about-life.html"}, "type": "Feature"}, {"geometry": {"coordinates": [120.62425, 16.417144], "type": "Point"}, "properties": {"category": "lifestyle", "int_sc": "79", "local_sc": "68", "location": "Queendom", "nat_sc": "74", "prov_sc": "32", "title": "Harry and Meghan\u2019s frigid farewell from royals proves them right to run", "topic": "famili just time peopl year home life day", "url": "https://www.thestar.com/entertainment/opinion/2020/03/10/harry-and-meghans-frigid-farewell-from-royals-proves-them-right-to-run.html"}, "type": "Feature"}, {"geometry": {"coordinates": [-69.830344, 18.503611], "type": "Point"}, "properties": {"category": "lifestyle", "int_sc": "85", "local_sc": "5", "location": "Ingrid", "nat_sc": "67", "prov_sc": "2", "title": "Is Dixie Chicks\u2019 gaslighter really just a jerk?", "topic": "famili just time peopl year home life day", "url": "https://www.thestar.com/entertainment/opinion/2020/03/11/is-dixie-chicks-gaslighter-really-just-a-jerk.html"}, "type": "Feature"}, {"geometry": {"coordinates": [-118.242767, 34.053691], "type": "Point"}, "properties": {"category": "lifestyle", "int_sc": "13", "local_sc": "39", "location": "Los Angeles", "nat_sc": "32", "prov_sc": "4", "title": "At least it wasn\u2019t boring: Peter Weber gets dumped, engaged and then calls it off on \u2018Bachelor\u2019 finale", "topic": "famili just time peopl year home life day", "url": "https://www.thestar.com/entertainment/television/review/2020/03/11/at-least-it-wasnt-boring-peter-weber-gets-dumped-engaged-and-then-calls-it-off-on-bachelor-finale.html"}, "type": "Feature"}, {"geometry": {"coordinates": [44.673665, 40.769627], "type": "Point"}, "properties": {"category": "lifestyle", "int_sc": "68", "local_sc": "66", "location": "A+", "nat_sc": "4", "prov_sc": "96", "title": "A bright future awaits for your cabinets \u2013 Chilliwack Progress", "topic": "famili just time peopl year home life day", "url": "https://www.theprogress.com/marketplace/a-bright-future-awaits-for-your-cabinets/"}, "type": "Feature"}, {"geometry": {"coordinates": [-122.419906, 37.779026], "type": "Point"}, "properties": {"category": "lifestyle", "int_sc": "4", "local_sc": "38", "location": "SF", "nat_sc": "54", "prov_sc": "31", "title": "New Sci-Fi books to keep you one page ahead of the headlines", "topic": "famili just time peopl year home life day", "url": "https://www.thestar.com/entertainment/books/2020/07/14/new-sci-fi-books-to-keep-you-one-page-ahead-of-the-headlines.html"}, "type": "Feature"}, {"geometry": {"coordinates": [-121.956167, 49.164694], "type": "Point"}, "properties": {"category": "lifestyle", "int_sc": "73", "local_sc": "0", "location": "Chilliwack", "nat_sc": "35", "prov_sc": "25", "title": "COLUMN: The search for truth in a misinformation age \u2013 Chilliwack Progress", "topic": "famili just time peopl year home life day", "url": "https://www.theprogress.com/opinion/column-the-search-for-truth-in-a-misinformation-age/"}, "type": "Feature"}, {"geometry": {"coordinates": [-75.697472, 45.421861], "type": "Point"}, "properties": {"category": "lifestyle", "int_sc": "73", "local_sc": "19", "location": "Ottawa", "nat_sc": "36", "prov_sc": "14", "title": "Pattie Lovett-Reid: The pandemic is forcing families to have the money chat with their children", "topic": "famili just time peopl year home life day", "url": "https://www.ctvnews.ca/business/pattie-lovett-reid-the-pandemic-is-forcing-families-to-have-the-money-chat-with-their-children-1.5017517"}, "type": "Feature"}, {"geometry": {"coordinates": [-122.329479, 49.052116], "type": "Point"}, "properties": {"category": "lifestyle", "int_sc": "96", "local_sc": "80", "location": "Abbotsford", "nat_sc": "9", "prov_sc": "14", "title": "Fresh and familiar: beloved Chilliwack store gets a face-lift \u2013 Chilliwack Progress", "topic": "famili just time peopl year home life day", "url": "https://www.theprogress.com/marketplace/fresh-and-familiar-beloved-chilliwack-store-gets-a-face-lift/"}, "type": "Feature"}, {"geometry": {"coordinates": [-96.302687, 41.009661], "type": "Point"}, "properties": {"category": "lifestyle", "int_sc": "41", "local_sc": "58", "location": "Tickets", "nat_sc": "96", "prov_sc": "89", "title": "The ultimate girls\u2019 day out is back for another year! \u2013 Chilliwack Progress", "topic": "famili just time peopl year home life day", "url": "https://www.theprogress.com/marketplace/the-ultimate-girls-day-out-is-back-for-another-year/"}, "type": "Feature"}, {"geometry": {"coordinates": [-91.534887, 41.554185], "type": "Point"}, "properties": {"category": "lifestyle", "int_sc": "29", "local_sc": "29", "location": "Hills", "nat_sc": "76", "prov_sc": "50", "title": "Horror books to make you lose your cool on a hot summer\u2019s night", "topic": "famili just time peopl year home life day", "url": "https://www.thestar.com/entertainment/books/2020/07/09/horror-books-to-make-you-lose-your-cool-on-a-hot-summers-night.html"}, "type": "Feature"}, {"geometry": {"coordinates": [-79.540139, 43.779361], "type": "Point"}, "properties": {"category": "lifestyle", "int_sc": "54", "local_sc": "58", "location": "Toronto", "nat_sc": "30", "prov_sc": "39", "title": "Eight kids books to help us learn a little more about each other", "topic": "famili just time peopl year home life day", "url": "https://www.thestar.com/entertainment/books/2020/06/26/eight-kids-books-to-help-us-learn-a-little-more-about-each-other.html"}, "type": "Feature"}, {"geometry": {"coordinates": [-0.54024, 52.795479], "type": "Point"}, "properties": {"category": "lifestyle", "int_sc": "36", "local_sc": "40", "location": "England", "nat_sc": "63", "prov_sc": "38", "title": "Queen makes veteran a knight at 100, no kneeling required", "topic": "famili just time peopl year home life day", "url": "https://www.cp24.com/world/queen-makes-veteran-a-knight-at-100-no-kneeling-required-1.5028775"}, "type": "Feature"}, {"geometry": {"coordinates": [2.351462, 48.856697], "type": "Point"}, "properties": {"category": "lifestyle", "int_sc": "19", "local_sc": "31", "location": "Paris", "nat_sc": "11", "prov_sc": "25", "title": "Chilliwack author pens memoir of her dad, releases book for Father\u2019s Day \u2013 Chilliwack Progress", "topic": "famili just time peopl year home life day", "url": "https://www.theprogress.com/entertainment/chilliwack-author-pens-memoir-of-her-dad-releases-book-for-fathers-day/"}, "type": "Feature"}, {"geometry": {"coordinates": [93.661548, 26.975056], "type": "Point"}, "properties": {"category": "lifestyle", "int_sc": "9", "local_sc": "41", "location": "Kokila", "nat_sc": "82", "prov_sc": "24", "title": "8 kids\u2019 books that bring the outdoors in for summer reading", "topic": "famili just time peopl year home life day", "url": "https://www.thestar.com/entertainment/books/2020/06/26/8-kids-books-that-bring-the-outdoors-in-for-summer-reading.html"}, "type": "Feature"}, {"geometry": {"coordinates": [-107.991707, 61.066692], "type": "Point"}, "properties": {"category": "lifestyle", "int_sc": "77", "local_sc": "33", "location": "Canada", "nat_sc": "49", "prov_sc": "44", "title": "'Heartbreaking': Alberta families describe waiting for life-changing drug to be made available in Canada", "topic": "famili just time peopl year home life day", "url": "https://edmonton.ctvnews.ca/heartbreaking-alberta-families-describe-waiting-for-life-changing-drug-to-be-made-available-in-canada-1.5028077"}, "type": "Feature"}, {"geometry": {"coordinates": [-79.540139, 43.779361], "type": "Point"}, "properties": {"category": "lifestyle", "int_sc": "64", "local_sc": "0", "location": "Toronto", "nat_sc": "57", "prov_sc": "57", "title": "Creating stories of love, together, with the poet Nizami\u2019s \u2018Khamseh\u2019 illustrated manuscript", "topic": "famili just time peopl year home life day", "url": "https://www.thestar.com/entertainment/visualarts/2020/06/22/creating-stories-of-love-together-with-the-poet-nizamis-khamseh-illustrated-manuscript.html"}, "type": "Feature"}, {"geometry": {"coordinates": [78.667743, 22.351115], "type": "Point"}, "properties": {"category": "lifestyle", "int_sc": "64", "local_sc": "16", "location": "India", "nat_sc": "11", "prov_sc": "79", "title": "Story of \u2018A Mother\u2019s Journey to Adoption\u2019 told in book by first-time Surrey author \u2013 North Delta Reporter", "topic": "famili just time peopl year home life day", "url": "https://www.northdeltareporter.com/community/story-of-a-mothers-journey-to-adoption-told-in-book-by-first-time-surrey-author/"}, "type": "Feature"}, {"geometry": {"coordinates": [-122.798996, 49.102505], "type": "Point"}, "properties": {"category": "lifestyle", "int_sc": "45", "local_sc": "61", "location": "Delta", "nat_sc": "46", "prov_sc": "69", "title": "SIMPSON: Before losing your cool, make sure the screw that\u2019s loose isn\u2019t yours \u2013 North Delta Reporter", "topic": "famili just time peopl year home life day", "url": "https://www.northdeltareporter.com/opinion/simpson-before-losing-your-cool-make-sure-the-screw-thats-loose-isnt-yours/"}, "type": "Feature"}, {"geometry": {"coordinates": [-38.255255, -9.342906], "type": "Point"}, "properties": {"category": "lifestyle", "int_sc": "85", "local_sc": "88", "location": "Gloria", "nat_sc": "86", "prov_sc": "51", "title": "Vanderbilts, Windsors and Royals, sex and scandal a recipe for page-turning debut novel", "topic": "famili just time peopl year home life day", "url": "https://www.thestar.com/entertainment/books/2020/07/14/vanderbilts-windsors-and-royals-sex-and-scandal-a-recipe-for-page-turning-debut-novel.html"}, "type": "Feature"}, {"geometry": {"coordinates": [8.231974, 46.798562], "type": "Point"}, "properties": {"category": "lifestyle", "int_sc": "39", "local_sc": "2", "location": "Switzerland", "nat_sc": "18", "prov_sc": "64", "title": "Why are we so nostalgic? Because the pain feels good, and we\u2019re not likely to be buried alive for it", "topic": "famili just time peopl year home life day", "url": "https://www.thestar.com/entertainment/books/2020/07/16/why-are-we-so-nostalgic-because-the-pain-feels-good-and-were-not-likely-to-be-buried-alive-for-it.html"}, "type": "Feature"}, {"geometry": {"coordinates": [-118.242767, 34.053691], "type": "Point"}, "properties": {"category": "lifestyle", "int_sc": "50", "local_sc": "26", "location": "Los Angeles", "nat_sc": "1", "prov_sc": "65", "title": "David Lee Roth is letting his art (mostly) do the talking", "topic": "famili just time peopl year home life day", "url": "https://www.thestar.com/entertainment/music/2020/07/13/david-lee-roth-is-letting-his-art-mostly-do-the-talking.html"}, "type": "Feature"}, {"geometry": {"coordinates": [-59.392116, -33.909564], "type": "Point"}, "properties": {"category": "lifestyle", "int_sc": "79", "local_sc": "24", "location": "Alsina", "nat_sc": "5", "prov_sc": "93", "title": "Jada and Will Smith address relationship in 'Table Talk'", "topic": "famili just time peopl year home life day", "url": "https://www.cp24.com/entertainment-news/jada-and-will-smith-address-relationship-in-table-talk-1.5020411"}, "type": "Feature"}, {"geometry": {"coordinates": [-86.000977, 50.000678], "type": "Point"}, "properties": {"category": "lifestyle", "int_sc": "43", "local_sc": "73", "location": "Ontario", "nat_sc": "93", "prov_sc": "28", "title": "Motorhome vacation just the thing for a pandemic", "topic": "famili just time peopl year home life day", "url": "https://www.thestar.com/autos/opinion/2020/06/26/motorhome-vacation-just-the-thing-for-a-pandemic.html"}, "type": "Feature"}, {"geometry": {"coordinates": [-79.540139, 43.779361], "type": "Point"}, "properties": {"category": "lifestyle", "int_sc": "76", "local_sc": "41", "location": "Toronto", "nat_sc": "83", "prov_sc": "29", "title": "When you spend nearly $900, you expect a little service", "topic": "famili just time peopl year home life day", "url": "https://www.thestar.com/autos/opinion/2020/06/19/when-you-spend-nearly-900-you-expect-a-little-service.html"}, "type": "Feature"}, {"geometry": {"coordinates": [127.696119, 36.638392], "type": "Point"}, "properties": {"category": "lifestyle", "int_sc": "22", "local_sc": "9", "location": "Korea", "nat_sc": "4", "prov_sc": "61", "title": "After 16-year wait, South Koreans finally get new Chex flavour", "topic": "famili just time peopl year home life day", "url": "https://www.cp24.com/lifestyle/human-interest/after-16-year-wait-south-koreans-finally-get-new-chex-flavour-1.5010154"}, "type": "Feature"}, {"geometry": {"coordinates": [-79.383935, 43.653482], "type": "Point"}, "properties": {"category": "lifestyle", "int_sc": "17", "local_sc": "16", "location": "Toronto", "nat_sc": "29", "prov_sc": "76", "title": "Council added 40 kms of bike lanes when nobody was looking", "topic": "famili just time peopl year home life day", "url": "https://www.thestar.com/autos/opinion/2020/06/05/council-added-40-kms-of-bike-lanes-when-nobody-was-looking.html"}, "type": "Feature"}, {"geometry": {"coordinates": [-118.755997, 36.701463], "type": "Point"}, "properties": {"category": "lifestyle", "int_sc": "70", "local_sc": "69", "location": "California", "nat_sc": "84", "prov_sc": "75", "title": "Passing the time during the pandemic", "topic": "famili just time peopl year home life day", "url": "https://www.thestar.com/autos/opinion/2020/05/22/passing-the-time-during-the-pandemic.html"}, "type": "Feature"}, {"geometry": {"coordinates": [-83.377155, 42.485312], "type": "Point"}, "properties": {"category": "lifestyle", "int_sc": "81", "local_sc": "23", "location": "Farmington Hills", "nat_sc": "47", "prov_sc": "81", "title": "Nissan\u2019s \u2018working remotely\u2019 could serve as a template for the future", "topic": "famili just time peopl year home life day", "url": "https://www.thestar.com/autos/opinion/2020/04/25/nissans-working-remotely-could-serve-as-a-template-for-the-future.html"}, "type": "Feature"}, {"geometry": {"coordinates": [-93.740504, 30.811899], "type": "Point"}, "properties": {"category": "lifestyle", "int_sc": "34", "local_sc": "46", "location": "Newton", "nat_sc": "43", "prov_sc": "32", "title": "New documentary is a rousing tribute to erotic photo legend Helmut Newton, and it doesn\u2019t skip his glitzy death", "topic": "famili just time peopl year home life day", "url": "https://www.thestar.com/entertainment/opinion/2020/07/17/new-documentary-is-a-rousing-tribute-to-erotic-photo-legend-helmut-newton-and-it-doesnt-skip-his-glitzy-death.html"}, "type": "Feature"},